PNODENAME,LAT,LON,ISO,NODETYPE
PJM,40.01712154,-80.42187559,PJMISO,ZONE
PJM-RTO,39.5367,-78.7261,PJMISO,ZONE
MID-ATL/APS,39.5917,-79.292,PJMISO,ZONE
RTEP B0287 SOURCE-OLD,39.7339,-76.2447,PJMISO,AGGREGATE
UN.FRNKLNSQ13.810CC,41.81634201,-71.40550013,NEISO,GENERATOR
UN.FRNKLNSQ13.811CC,41.81634201,-71.40550013,NEISO,GENERATOR
UN.FRNKLNSQ13.89CC,41.81634201,-71.40550013,NEISO,GENERATOR
UN.CDEC    13.8AETN,41.78296404,-72.70443698,NEISO,GENERATOR
UN.ALTRESCO13.8ALTR,42.44821649,-73.2062452,NEISO,GENERATOR
UN.EDDY    34.5AMOS,43.00299228,-71.47309355,NEISO,GENERATOR
UN.GULFISLD34.5GULF,44.15131047,-70.20855063,NEISO,GENERATOR
UN.ASCUTNEY46  ASCU,43.40109078,-72.41942716,NEISO,GENERATOR
UN.PEMIGWAS34.5AYER,43.59674743,-71.70937159,NEISO,GENERATOR
UN.ROXBURY 34.5AZIS,44.9439,-70.9975,NEISO,GENERATOR
UN.ELLSWRTH34.5BARH,44.381202,-68.28487,NEISO,GENERATOR
UN.BELLWSFL6.9 BELL,43.13257744,-72.4418968,NEISO,GENERATOR
UN.BERLINVT34.5BERL,44.22171023,-72.55858713,NEISO,GENERATOR
UN.WHITEFLD34.5BETH,44.41614837,-71.4770813,NEISO,GENERATOR
UN.PEQUONCK20.0BHR2,41.17757158,-73.1976571,NEISO,GENERATOR
UN.PEQUONCK22.0BHR3,41.17757158,-73.1976571,NEISO,GENERATOR
UN.PEQUONCK13.8BHR4,41.17757158,-73.1976571,NEISO,GENERATOR
UN.JACKMAN 34.5BIO,43.11203438,-71.92611742,NEISO,GENERATOR
UN.CATALYST115 BOIS,44.55070797,-70.5428625,NEISO,GENERATOR
UN.MIDDLESX34.5BOLT,44.28917786,-72.67957099,NEISO,GENERATOR
UN.PERRY_ST13.8BOOT,42.6388479,-71.30225643,NEISO,GENERATOR
UN.BPT_RESC13.8BPTR,41.16998775,-73.18541462,NEISO,GENERATOR
UN.BRAYTNPT18.0BRA1,41.7125,-71.1914,NEISO,GENERATOR
UN.BRAYTNPT18.0BRA2,41.7125,-71.1914,NEISO,GENERATOR
UN.BRAYTNPT20.0BRA3,41.7125,-71.1914,NEISO,GENERATOR
UN.BRAYTNPT22  BRA4,41.7125,-71.1914,NEISO,GENERATOR
UN.BRAYTNPT115 BRAD,41.7125,-71.1914,NEISO,GENERATOR
UN.BRANFORD23  BRAN,41.29241594,-72.80083288,NEISO,GENERATOR
UN.FORESTVL13.8BRF,41.643781,-72.873801,NEISO,GENERATOR
UN.ASHLAND 34.5BRID,43.69156592,-71.63727811,NEISO,GENERATOR
UN.TOPSHAM 34.5BRUN,43.95954287,-69.97672554,NEISO,GENERATOR
UN.BEARSWMP13.8BSW1,42.68390377,-72.94976943,NEISO,GENERATOR
UN.BEARSWMP13.8BSW2,42.68390377,-72.94976943,NEISO,GENERATOR
UN.POTTER  13.8BTRD,42.2350469,-70.96675773,NEISO,GENERATOR
UN.BULLSBDG27.6BULL,41.65896876,-73.49142377,NEISO,GENERATOR
UN.QUEENCTY13.8BURL,44.44574863,-73.21853373,NEISO,GENERATOR
UN.CANAL   18.0CAN1,41.769104,-70.510674,NEISO,GENERATOR
UN.CANAL   18.0CAN2,41.769104,-70.510674,NEISO,GENERATOR
UN.CAPE    13.2CAP4,43.6426648,-70.25478818,NEISO,GENERATOR
UN.CAPE    13.2CAP5,43.6426648,-70.25478818,NEISO,GENERATOR
UN.LOUDEN  34.5CATR,43.529291,-70.503305,NEISO,GENERATOR
UN.COSCOB  13.8CC10,41.0289484,-73.5979204,NEISO,GENERATOR
UN.COSCOB  13.8CC11,41.02894947,-73.59796257,NEISO,GENERATOR
UN.COSCOB  13.8CC12,41.02895048,-73.59796403,NEISO,GENERATOR
UN.TAUNTON 13.8CL9C,41.8653,-71.1061,NEISO,GENERATOR
UN.TAUNTON 13.8CLE8,41.8653,-71.1061,NEISO,GENERATOR
UN.COBBLEMT69  COBB,42.14562838,-72.88507883,NEISO,GENERATOR
UN.COMERFRD13.8COMF,44.32109966,-72.00337522,NEISO,GENERATOR
UN.MERIMACK13.8CT-1,43.16270764,-71.50743317,NEISO,GENERATOR
UN.MERIMACK13.8CT-2,43.16271076,-71.50742724,NEISO,GENERATOR
UN.DARTMTH 13.8DART,41.68041991,-71.00537663,NEISO,GENERATOR
UN.INDIAN  13.8DERB,41.3207,-73.089,NEISO,GENERATOR
UN.DEXTER  13.8DEXT,41.936346,-72.614791,NEISO,GENERATOR
UN.DEERFLD569  DFL5,42.7244,-72.9378,NEISO,GENERATOR
UN.DOREEN  23  DORE,42.4431,-73.2061,NEISO,GENERATOR
UN.DEVON   13.8DV10,41.20920811,-73.10730318,NEISO,GENERATOR
UN.DEVON   13.2DV11,41.20920811,-73.10730318,NEISO,GENERATOR
UN.DEVON   13.2DV12,41.20920811,-73.10730318,NEISO,GENERATOR
UN.DEVON   13.2DV13,41.20920811,-73.10730318,NEISO,GENERATOR
UN.DEVON   13.2DV14,41.20920811,-73.10730318,NEISO,GENERATOR
UN.WEBSTER 34.5EAST,43.45581715,-71.67280772,NEISO,GENERATOR
UN.ELLSWRTH34.5ELLS,44.52901562,-68.38154098,NEISO,GENERATOR
UN.WASHNGTN34.5EPTD,44.9136,-67.0033,NEISO,GENERATOR
UN.ESSEX   34.5ESSH,44.48122232,-73.11305759,NEISO,GENERATOR
UN.EXETER  115 EXTR,41.712835,-71.822671,NEISO,GENERATOR
UN.FALSVL  69  FALS,41.95598079,-73.36837225,NEISO,GENERATOR
UN.DEERFLD569  FIFE,42.6889,-72.9761,NEISO,GENERATOR
UN.FLORNCE 44  FLO1,43.708194,-73.06293352,NEISO,GENERATOR
UN.FLORNCE 44  FLO2,43.708194,-73.06293352,NEISO,GENERATOR
UN.FRAMNGHM13.8FMJ1,42.26815075,-71.39852938,NEISO,GENERATOR
UN.FRAMNGHM13.8FMJ2,42.26815075,-71.39852938,NEISO,GENERATOR
UN.FRAMNGHM13.8FMJ3,42.26815075,-71.39852938,NEISO,GENERATOR
UN.FRNKLNDR13.2FRDR,41.79937978,-73.11637657,NEISO,GENERATOR
UN.CHICOPEE13.8FRST,42.148701,-72.607864,NEISO,GENERATOR
UN.POWERSVL115 GNRT,45.644511,-68.707006,NEISO,GENERATOR
UN.ESSEX   34.5GORD,44.48122232,-73.11305759,NEISO,GENERATOR
UN.BERLN_NH34.5GORH,44.402998,-71.114911,NEISO,GENERATOR
UN.GUILFORD34.5GRNL,45.5063,-69.5874,NEISO,GENERATOR
UN.HARRIS  13.2HAR1,45.433962,-69.977862,NEISO,GENERATOR
UN.HARRIS  13.2HAR2,45.433962,-69.977862,NEISO,GENERATOR
UN.HARRIS  13.2HAR3,45.433962,-69.977862,NEISO,GENERATOR
UN.HARRIMAN115 HARR,42.75821976,-72.92984002,NEISO,GENERATOR
UN.NORTH_RD34.5HEMP,43.229819,-72.151606,NEISO,GENERATOR
UN.HOLYOKE 13.8HGE6,42.19974462,-72.59709776,NEISO,GENERATOR
UN.HOLYOKE 13.8HGE8,42.19974486,-72.59709878,NEISO,GENERATOR
UN.W_BUXTON34.5HIRM,43.85298,-70.795124,NEISO,GENERATOR
UN.ENFLD_ME115 IND5,45.245766,-68.601791,NEISO,GENERATOR
UN.WASHNGTN34.5IND6,44.675444,-67.546365,NEISO,GENERATOR
UN.KING_ST 23  IPSD,42.73655223,-71.01232275,NEISO,GENERATOR
UN.JACKMAN 34.5JACK,43.11203438,-71.92611742,NEISO,GENERATOR
UN.JOHNSTON23  JNLF,41.81448809,-71.47464838,NEISO,GENERATOR
UN.KENDALL 13.8KDJ1,42.3633,-71.0792,NEISO,GENERATOR
UN.S_BROADW23  LAWH,42.6994,-71.1653,NEISO,GENERATOR
UN.WINSLOW 34.5LCKW,44.5489,-69.6169,NEISO,GENERATOR
UN.LENERGIA13.8LENR,42.628894,-71.298977,NEISO,GENERATOR
UN.LISBON  115 LISB,41.6063238,-71.97723621,NEISO,GENERATOR
UN.LVER-AEI115 LIVR,44.43181796,-70.16166881,NEISO,GENERATOR
UN.LOSTNATN34.5LOST,44.59400079,-71.49451351,NEISO,GENERATOR
UN.LOWRDFLD69  LOWD,42.552631,-72.691581,NEISO,GENERATOR
UN.K_STREET115 LST,42.33940551,-71.03835986,NEISO,GENERATOR
UN.RAILYARD23  MARB,42.516452,-70.959318,NEISO,GENERATOR
UN.BERLINVT34.5MARH,44.36219272,-72.30557972,NEISO,GENERATOR
UN.MBTA    14.4MBTA,42.33924492,-71.0313888,NEISO,GENERATOR
UN.COMERFRD34.5MCIN,44.32109966,-72.00337522,NEISO,GENERATOR
UN.EAST_AVE34.5MCNL,44.48065778,-73.18860737,NEISO,GENERATOR
UN.CHSTERME46  MEDW,45.618055,-68.578263,NEISO,GENERATOR
UN.LOUDEN  34.5MERC,43.529291,-70.503305,NEISO,GENERATOR
UN.MIDDLETN115 MI10,41.55451127,-72.57797534,NEISO,GENERATOR
UN.MIDDLETN115 MID1,41.55451127,-72.57797534,NEISO,GENERATOR
UN.MIDDLETN13.2MID2,41.55451127,-72.57797534,NEISO,GENERATOR
UN.MIDDLETN20.9MID3,41.55451127,-72.57797534,NEISO,GENERATOR
UN.LAUREL  22  MID4,41.55451127,-72.57797534,NEISO,GENERATOR
UN.MILSTONE24.0MIL2,41.31469723,-72.1650083,NEISO,GENERATOR
UN.MILSTONE24.0MIL3,41.31469723,-72.1650083,NEISO,GENERATOR
UN.MILFORD 13.8MILF,42.12976066,-71.51177104,NEISO,GENERATOR
UN.TOPSHAM 34.5MILR,43.95954287,-69.97672554,NEISO,GENERATOR
UN.MERIMACK13.8MK1,43.16271347,-71.50742716,NEISO,GENERATOR
UN.MERIMACK23.0MK2,43.16271801,-71.50743233,NEISO,GENERATOR
UN.MONTVLLE69  MO10,41.42866368,-72.10474443,NEISO,GENERATOR
UN.MONTVLLE13.8MON5,41.42866368,-72.10474443,NEISO,GENERATOR
UN.MONTVLLE22.0MON6,41.42866368,-72.10474443,NEISO,GENERATOR
UN.LEWSTN_L34.5MONY,44.08686858,-70.21187457,NEISO,GENERATOR
UN.MOORE   13.8MOOR,44.32916049,-71.88465793,NEISO,GENERATOR
UN.SHAWINGN13.8MPWR,42.1522,-72.5239,NEISO,GENERATOR
UN.MT_TOM  15.0MTOM,42.2814,-72.6053,NEISO,GENERATOR
UN.MYSTIC  22  MYS7,42.3917,-71.0667,NEISO,GENERATOR
UN.MYSTIC  24.0MYSJ,42.3917,-71.0667,NEISO,GENERATOR
UN.K_STREET115 NBS1,42.33940551,-71.03835986,NEISO,N/A
PINEY___2,,,NYISO,GENERATOR
UN.BELLNGHM13.2NEA,42.09188085,-71.48361663,NEISO,GENERATOR
UN.NEWINGTN24.0NEWI,43.09820658,-70.79249239,NEISO,GENERATOR
UN.E_SHORE 22  NHHB,41.28805743,-72.90450337,NEISO,GENERATOR
UN.TUNNEL  69  NORJ,41.5553,-72.0419,NEISO,GENERATOR
UN.NORWALKH17.1NRW1,41.12744304,-73.42835134,NEISO,GENERATOR
UN.NORWALKH19.0NRW2,41.12744304,-73.42835134,NEISO,GENERATOR
UN.NORWALKH13.8NRW3,41.12744304,-73.42835134,NEISO,GENERATOR
UN.WARD_HIL23  OGD,42.74421518,-71.11368879,NEISO,GENERATOR
UN.OCEAN_ST13.8OSP1,42.00995167,-71.66883258,NEISO,GENERATOR
UN.OCEAN_ST13.8OSP2,42.00995167,-71.66883258,NEISO,GENERATOR
UN.ADMIRAL 23.0PAWP,41.84167248,-71.42115082,NEISO,GENERATOR
UN.TOPSHAM 34.5PEJE,43.95954287,-69.97672554,NEISO,GENERATOR
UN.GRAHAM  46  PENB,44.824164,-68.705372,NEISO,GENERATOR
UN.CHEMICAL115 PERC,44.79079,-68.84881,NEISO,GENERATOR
UN.PILGRIM 22.8PILG,41.94322139,-70.5797677,NEISO,GENERATOR
UN.FLAGG_PD13.8PINE,42.596045,-71.95368,NEISO,GENERATOR
UN.PONTOOK 34.5PONT,44.656643,-71.26525,NEISO,GENERATOR
UN.POTTER  13.8POT2,42.2350469,-70.96675773,NEISO,GENERATOR
UN.FLORNCE 46  PROC,43.708194,-73.06293352,NEISO,GENERATOR
UN.SPRNG_ST34.5PTRR,43.65162078,-70.3602472,NEISO,GENERATOR
UN.BLACK_RK115 RBOW,41.9156,-72.6927,NEISO,GENERATOR
UN.RESCOS  115 RESC,42.44948689,-71.02291402,NEISO,GENERATOR
UN.WARD_HIL23  RESN,42.74421518,-71.11368879,NEISO,GENERATOR
UN.N_RUTLND46  RUT5,43.63346941,-73.05766363,NEISO,GENERATOR
UN.SALEM   23  SAL1,42.5267,-70.8792,NEISO,GENERATOR
UN.SALEM   23  SAL2,42.5267,-70.8792,NEISO,GENERATOR
UN.SALEM   23  SAL3,42.5267,-70.8792,NEISO,GENERATOR
UN.SALEM   22  SAL4,42.5267,-70.8792,NEISO,GENERATOR
UN.SEABROOK24.5SBRK,42.900779,-70.8539,NEISO,GENERATOR
UN.SCHILLER115 SCH4,43.0978,-70.7842,NEISO,GENERATOR
UN.SCHILLER115 SCH5,43.0978,-70.7842,NEISO,GENERATOR
UN.SCHILLER115 SCH6,43.0978,-70.7842,NEISO,GENERATOR
UN.SCHILLER115 SCHC,43.0978,-70.7842,NEISO,GENERATOR
UN.SEARS   69  SEAR,42.870865,-72.925154,NEISO,GENERATOR
UN.SECREC  69  SECR,41.48901688,-72.03347019,NEISO,GENERATOR
UN.SEMASS  13.8SEM1,41.813528,-70.794385,NEISO,GENERATOR
UN.SEMASS  13.8SEM2,41.813528,-70.794385,NEISO,GENERATOR
UN.HIGHGATE46  SHEL,44.93844654,-73.05402966,NEISO,GENERATOR
UN.SHEPAUG 69  SHEP,41.44871461,-73.29462492,NEISO,GENERATOR
UN.SHERMAN 115 SHER,42.7297,-72.9303,NEISO,GENERATOR
UN.ROLF_AVE69  SHRW,42.274133,-71.735628,NEISO,GENERATOR
UN.LOUDEN  34.5SKEL,43.529291,-70.503305,NEISO,GENERATOR
UN.SMITH_HY6.9 SMTH,44.472963,-71.172122,NEISO,GENERATOR
UN.S_MEADOW13.8SO11,41.75031456,-72.65405681,NEISO,GENERATOR
UN.S_MEADOW13.8SO12,41.75031456,-72.65405681,NEISO,GENERATOR
UN.S_MEADOW13.8SO13,41.75031456,-72.65405681,NEISO,GENERATOR
UN.S_MEADOW13.8SO14,41.75031456,-72.65405681,NEISO,GENERATOR
UN.SOMERSET115 SO6,41.73825405,-71.14589864,NEISO,GENERATOR
UN.SOMERSET115 SOJ2,41.73825405,-71.14589864,NEISO,GENERATOR
UN.S_MEADOW11.5SOM5,41.75031456,-72.65405681,NEISO,GENERATOR
UN.S_MEADOW11.5SOM6,41.75031456,-72.65405681,NEISO,GENERATOR
UN.STONYBRK13.2ST2A,42.1953,-72.5156,NEISO,GENERATOR
UN.STONYBRK13.2ST2B,42.1953,-72.5156,NEISO,GENERATOR
UN.STALBANS34.5STAB,44.80444035,-73.09883959,NEISO,N/A
UN.STEVENSN6.9 STEV,41.38226788,-73.17067263,NEISO,GENERATOR
UN.BIGELOW 115 STRA,45.10157029,-70.35368515,NEISO,GENERATOR
UN.PRID_CRN34.5SWBK,43.684857,-70.353152,NEISO,GENERATOR
UN.TAMWORTH115 TAMW,43.8647,-71.2601,NEISO,GENERATOR
UN.THAMES  20.0THAM,41.43348097,-72.09909541,NEISO,GENERATOR
UN.TORRNGTN69  TT10,41.77617369,-73.12100285,NEISO,GENERATOR
UN.TUNNEL  23.0TUNN,41.5553,-72.0419,NEISO,GENERATOR
UN.VERGENNE34.5VERD,44.1790163,-73.24933086,NEISO,GENERATOR
UN.VERNON  69  VERN,42.771549,-72.515318,NEISO,GENERATOR
UN.VT_YK   20.9VTYA,42.780124,-72.515929,NEISO,GENERATOR
UN.WATER_RV23  W_J1,42.54355811,-70.92860006,NEISO,GENERATOR
UN.WATER_RV115 W_J2,42.54355811,-70.92860006,NEISO,GENERATOR
UN.MIDDLESX34.5WATR,44.28915463,-72.67956048,NEISO,GENERATOR
UN.CHSTERME46  WENF,45.618055,-68.578263,NEISO,GENERATOR
UN.LAKEWOOD34.5WEST,44.78835,-69.736861,NEISO,GENERATOR
UN.WHITEFLD34.5WFPL,44.41614837,-71.4770813,NEISO,GENERATOR
UN.WHITE_LK34.5WHLA,43.84811385,-71.20682916,NEISO,GENERATOR
UN.WILDER  13.8WILD,43.68326954,-72.31182715,NEISO,GENERATOR
UN.WILLIAM 6.9 WILL,44.95909,-69.871071,NEISO,GENERATOR
UN.EAST_AVE13.8WINO,44.48065778,-73.18860737,NEISO,GENERATOR
UN.WALREC  115 WLRC,41.43977437,-72.83437679,NEISO,GENERATOR
UN.MILLBURY115 WMIM,42.19164385,-71.74285603,NEISO,GENERATOR
UN.W_MEDWAY13.8WMJ1,42.138968,-71.448468,NEISO,GENERATOR
UN.W_MEDWAY13.8WMJ2,42.138968,-71.448468,NEISO,GENERATOR
UN.MEDWAYJ313.8WMJ3,42.138968,-71.448468,NEISO,GENERATOR
UN.WOODLAND23  WOOD,42.335,-73.2364,NEISO,GENERATOR
UN.DEBLOIS 115 WORC,44.70046753,-67.95707655,NEISO,GENERATOR
UN.W_SPRFLD13.8WS10,42.09091032,-72.63484588,NEISO,GENERATOR
UN.W_SPRFLD13.8WSP3,42.09091032,-72.63484588,NEISO,GENERATOR
UN.WYMAN_HY13.8WYM1,45.070768,-69.903236,NEISO,GENERATOR
UN.WYMAN_HY13.8WYM2,45.070768,-69.903236,NEISO,GENERATOR
UN.WYMAN_HY13.8WYM3,45.070768,-69.903236,NEISO,GENERATOR
UN.YARMOUTH13.2YAR1,43.75124484,-70.15547564,NEISO,GENERATOR
UN.YARMOUTH13.2YAR2,43.75124484,-70.15547564,NEISO,GENERATOR
UN.YARMOUTH13.8YAR3,43.75124484,-70.15547564,NEISO,GENERATOR
UN.YARMOUTH22  YAR4,43.75124484,-70.15547564,NEISO,GENERATOR
UN.RCHSTER 34.5ROCH,43.30804458,-70.99784406,NEISO,GENERATOR
UN.ROCKY_RV13.8ROCK,41.58248906,-73.43369864,NEISO,GENERATOR
UN.NORTHFLD13.8NFLD,,,NEISO,N/A
UN.LOUDEN  34.5BARM,43.529291,-70.503305,NEISO,GENERATOR
UN.W_BUXTON34.5BONE,43.66338713,-70.5533253,NEISO,GENERATOR
UN.HARRIS  13.2HAR4,45.433962,-69.977862,NEISO,GENERATOR
UN.WINSLOW 115 HALI,44.5489,-69.6169,NEISO,GENERATOR
UN.LOUDEN  34.5NGOR,43.802009,-70.45028,NEISO,GENERATOR
UN.WINSLOW 34.5SHAW,44.5489,-69.6169,NEISO,GENERATOR
UN.MONTAGUE13.8CBTF,42.58765752,-72.57808081,NEISO,N/A
UN.OAK_HILL34.5CONC,43.316566,-71.589497,NEISO,GENERATOR
UN.GARVINS 34.5GARV,43.22127494,-71.44134998,NEISO,GENERATOR
UN.N_CANAL 34.5HADL,42.19754405,-72.58941963,NEISO,GENERATOR
UN.E_FAIRFX34.5LLAM,44.63655304,-72.9312495,NEISO,GENERATOR
UN.MIDLEBRY46  MDLB,44.01109262,-73.15995438,NEISO,GENERATOR
UN.N_RUTLND46  NRUT,43.63346941,-73.05766363,NEISO,GENERATOR
UN.MIDDLESX34.5MSX2,44.28918535,-72.67958177,NEISO,GENERATOR
UN.HIGHGATE46  HGFA,44.93844654,-73.05402966,NEISO,GENERATOR
UN.DIGHTON 115 DIGH,41.81623109,-71.13608175,NEISO,GENERATOR
UN.FALMOUTH25  OAKB,41.4508,-70.5547,NEISO,GENERATOR
UN.FALMOUTH25  WTIS,41.3867,-70.6314,NEISO,GENERATOR
UN.BPT_ENER16  BHCC,41.172471,-73.184898,NEISO,GENERATOR
UN.GE_RIVER115 GEEL,,,NEISO,N/A
UN.JAY     115 AEC,,,NEISO,N/A
UN.BERK_PWR21  BERK,42.1351,-72.6316,NEISO,GENERATOR
UN.SAPHINCK13.8SOMR,44.701262,-69.648568,NEISO,GENERATOR
UN.BUCKSPRT115 CHAM,44.57472034,-68.80601496,NEISO,GENERATOR
UN.STONYBRK13.2ST1A,42.1953,-72.5156,NEISO,GENERATOR
UN.STONYBRK13.2ST1B,42.1953,-72.5156,NEISO,GENERATOR
UN.STONYBRK13.2ST1C,42.1953,-72.5156,NEISO,GENERATOR
UN.MEABROOK23.0CPCL,42.62830257,-71.38362393,NEISO,GENERATOR
UN.MILLENUM16  MILN,42.1122,-72.0097,NEISO,GENERATOR
UN.GRAHAM  18.0MIS,44.824164,-68.705372,NEISO,GENERATOR
UN.ESSEX   34.5ESSD,44.48122232,-73.11305759,NEISO,GENERATOR
UN.TIVERTON18.0TIVR,41.6417,-71.17,NEISO,GENERATOR
UN.RUMFD_IP18.0RUMF,44.53134633,-70.52263865,NEISO,GENERATOR
UN.BLKSTONE21  BKS1,42.05966734,-71.51368103,NEISO,GENERATOR
UN.BLKSTONE21  BKS2,42.05969615,-71.51368094,NEISO,GENERATOR
UN.BUCKSPRT18.0BUCK,44.57472034,-68.80601496,NEISO,GENERATOR
UN.LAKE_RD 21  LRD1,41.87429866,-71.89557174,NEISO,GENERATOR
UN.LAKE_RD 21  LRD2,41.87429866,-71.89557174,NEISO,GENERATOR
UN.LAKE_RD 21  LRD3,41.87429866,-71.89557174,NEISO,GENERATOR
UN.WESTBRK 18.0WBRK,43.65680615,-70.37612588,NEISO,N/A
UN.WALNGFRD13.8WAL1,41.455391,-72.838322,NEISO,GENERATOR
UN.WALNGFRD13.8WAL2,41.455391,-72.838322,NEISO,GENERATOR
UN.WALNGFRD13.8WAL3,41.455391,-72.838322,NEISO,GENERATOR
UN.WALNGFRD13.8WAL4,41.455391,-72.838322,NEISO,GENERATOR
UN.WALNGFRD13.8WAL5,41.455391,-72.838322,NEISO,GENERATOR
UN.MILFD_CT21  MFD1,41.2239,-73.1,NEISO,GENERATOR
UN.MILFD_CT21  MFD2,41.2239,-73.1,NEISO,GENERATOR
UN.BELL_30321  BEL1,42.10926,-71.451832,NEISO,GENERATOR
UN.BELL_30321  BEL2,42.10926,-71.451832,NEISO,GENERATOR
UN.SYKES_RD13.8FLRV,41.74040064,-71.1159722,NEISO,GENERATOR
UN.MYSTIC  18.1MYS8,42.3917,-71.0667,NEISO,GENERATOR
UN.MYSTIC  18.1MYS9,42.3917,-71.0667,NEISO,GENERATOR
UN.GR_RIDGE16  GRAN,42.904715,-71.424034,NEISO,GENERATOR
UN.RISE    18.0RISE,41.8017,-71.5186,NEISO,GENERATOR
UN.NEW_ENER18.0NEWE,43.1047,-70.8044,NEISO,GENERATOR
UN.KENDALL 18.0KEN4,42.3633,-71.0792,NEISO,GENERATOR
UN.EDGAR   18.0EDGR,42.24054749,-70.96491639,NEISO,GENERATOR
UN.W_SPRFLD13.8WSG1,42.09091032,-72.63484588,NEISO,GENERATOR
UN.W_SPRFLD13.8WSG2,42.09091032,-72.63484588,NEISO,GENERATOR
UN.W_SPRFLD13.8SPRF,42.09091032,-72.63484588,NEISO,GENERATOR
UN.WINSLOW 34.5UNAH,44.5489,-69.6169,NEISO,GENERATOR
UN.FLORNCE 46  BLDN,44.052257,-73.17605,NEISO,GENERATOR
UN.BARRE_VT34.5DODF,44.20562695,-72.51837277,NEISO,GENERATOR
UN.FLORNCE 46  HNTG,43.708194,-73.06293352,NEISO,GENERATOR
UN.BARRE_VT34.5RYGT,44.2131,-72.0572,NEISO,GENERATOR
UN.ESSEX   34.5GORG,44.48122232,-73.11305759,NEISO,GENERATOR
UN.VERGENNE34.5VRGH,44.1790163,-73.24933086,NEISO,GENERATOR
LD.BARRE_VT34.5,44.20562695,-72.51837277,NEISO,LOAD
.H.INTERNAL_HUB,42.49230539,-71.87401832,NEISO,HUB
.Z.MAINE,44.695493,-69.66196,NEISO,ZONE
.Z.NEWHAMPSHIRE,43.693541,-71.473269,NEISO,ZONE
.Z.VERMONT,43.872116,-72.771347,NEISO,ZONE
.Z.CONNECTICUT,41.673576,-72.606249,NEISO,ZONE
.Z.RHODEISLAND,41.708162,-71.573636,NEISO,ZONE
.Z.SEMASS,41.813528,-70.794385,NEISO,ZONE
.Z.WCMASS,42.413492,-72.378835,NEISO,ZONE
.Z.NEMASSBOST,42.358429,-71.059776,NEISO,ZONE
.I.SALBRYNB345 1,46.02077502,-64.99587353,NEISO,INTERFACE
.I.ROSETON 345 1,41.57475,-73.97874,NEISO,INTERFACE
.I.HQ_P1_P2345 5,45.294067,-73.017321,NEISO,INTERFACE
.I.HQHIGATE120 2,45.01464651,-72.9677552,NEISO,INTERFACE
.I.SHOREHAM138 99,40.962132,-72.821324,NEISO,INTERFACE
.I.NRTHPORT138 5,40.923015,-73.342782,NEISO,INTERFACE
LD.CHSTERME46,45.618055,-68.578263,NEISO,LOAD
LD.GRAHAM  46,44.824164,-68.705372,NEISO,LOAD
LD.WASHNGTN34.5,44.675444,-67.546365,NEISO,LOAD
LD.HARRINGT34.5,44.62841791,-67.79242744,NEISO,LOAD
LD.WOBURN  13.8,42.46244947,-71.15416601,NEISO,LOAD
LD.LEXINGTN13.8,42.44517089,-71.26637086,NEISO,LOAD
LD.MYSTIC  115,42.3917,-71.0667,NEISO,LOAD
LD.MYSTIC  24.0,42.3917,-71.0667,NEISO,LOAD
LD.FRAMNGHM13.8,42.26815075,-71.39852938,NEISO,LOAD
LD.WALTHAM 13.8,42.37820615,-71.26316261,NEISO,LOAD
LD.BAKER_ST24.0,42.27326,-71.234815,NEISO,LOAD
LD.PRSPCTBE13.8,,,NEISO,LOAD
LD.K_STREET13.8,42.33940551,-71.03835986,NEISO,LOAD
LD.MBTA    14.4,42.33924492,-71.0313888,NEISO,LOAD
LD.DEER_ISL115,42.3507,-70.9586,NEISO,LOAD
LD.CARVR_ST13.8,42.356784,-71.076618,NEISO,LOAD
LD.CHELSEA 115,42.39305037,-71.06695392,NEISO,N/A
LD.SCOTIA  13.8,42.331862,-71.198689,NEISO,LOAD
LD.BRIGHTON13.8,42.331862,-71.198689,NEISO,LOAD
LD.READING 13.8,42.5088194,-71.12650975,NEISO,LOAD
LD.BURLNGTN13.8,42.47539687,-71.21432527,NEISO,LOAD
LD.HARTWELL13.8,42.47055378,-71.25724062,NEISO,LOAD
LD.TRAPELO 13.8,42.413182,-71.268925,NEISO,LOAD
LD.WATERTWN13.8,42.3745,-71.1792,NEISO,LOAD
LD.NEEDHAM 13.8,42.27144154,-71.23946366,NEISO,LOAD
LD.SPEEN_ST13.8,42.311664,-71.387857,NEISO,LOAD
LD.SUDBURY 13.8,42.337019,-71.39234,NEISO,LOAD
LD.SHERBORN13.8,42.24024158,-71.37202915,NEISO,LOAD
LD.W_FRMHAM13.8,42.26815075,-71.39852938,NEISO,LOAD
LD.MEDWAY  13.8,42.138968,-71.448468,NEISO,LOAD
LD.DOVER_BE13.8,42.25557151,-71.27223757,NEISO,LOAD
LD.WALPOLE 14.4,42.13122544,-71.26819305,NEISO,LOAD
LD.NORWOOD 13.8,42.174652,-71.186887,NEISO,LOAD
LD.CANTN_BE13.8,42.186314,-71.154336,NEISO,LOAD
LD.PLAIN_ST13.8,42.1972294,-70.99929993,NEISO,LOAD
LD.CHURCHIL13.8,42.2087522,-71.0013475,NEISO,LOAD
LD.MASON   34.5,44.04423289,-69.54355192,NEISO,LOAD
LD.NEWCASTL34.5,44.08277524,-69.55795493,NEISO,LOAD
LD.YARMOUTH34.5,43.75124484,-70.15547564,NEISO,LOAD
LD.GORBELL 115,,,NEISO,N/A
LD.W_BUXTON34.5,43.66588577,-70.59661313,NEISO,LOAD
LD.WATERBOR12.5,43.5933,-70.7073,NEISO,LOAD
LD.BOLT_HL 34.5,43.11623071,-70.76909499,NEISO,LOAD
LD.MAXCYS  34.5,44.28870733,-69.56326676,NEISO,LOAD
LD.MADISON 13.8,44.78893532,-69.88766558,NEISO,LOAD
LD.RUMFORD 12.5,44.53726577,-70.54465422,NEISO,LOAD
LD.RUMFD_IP34.5,44.53134633,-70.52263865,NEISO,LOAD
LD.CATALYST115,44.55070797,-70.5428625,NEISO,LOAD
LD.BUCKSPRT13.8,44.57472034,-68.80601496,NEISO,LOAD
LD.BELFAST 34.5,44.42962402,-69.02088936,NEISO,LOAD
LD.WINSLOW 34.5,44.5489,-69.6169,NEISO,LOAD
LD.HIGHLAND34.5,44.1363505,-69.20414394,NEISO,LOAD
LD.LINCOLNV34.5,44.30709827,-69.11430001,NEISO,LOAD
LD.MEADW_RD34.5,44.17555255,-69.12124962,NEISO,LOAD
LD.PARK_ST 34.5,44.10223093,-69.12261874,NEISO,LOAD
LD.DETROIT 34.5,44.79281792,-69.36181316,NEISO,LOAD
LD.N_AUGSTA12.5,44.3635859,-69.79759396,NEISO,LOAD
LD.GUILFORD34.5,45.5063,-69.5874,NEISO,LOAD
LD.HARTLAND12.5,44.83594119,-69.47646207,NEISO,LOAD
LD.WYMAN_HY12.5,45.070768,-69.903236,NEISO,LOAD
LD.BIGELOW 34.5,45.10169413,-70.35351125,NEISO,LOAD
LD.MOSCOW  115,45.071172,-69.90251,NEISO,LOAD
LD.HARRIS  13.2,45.433962,-69.977862,NEISO,LOAD
LD.SAPHINCK13.8,44.701262,-69.648568,NEISO,LOAD
LD.LAKEWOOD34.5,44.78835,-69.736861,NEISO,LOAD
LD.RICERIPS34.5,44.568329,-69.685163,NEISO,LOAD
LD.WILLIAM 115,44.78090157,-69.91377706,NEISO,LOAD
LD.STURTVNT34.5,44.65499805,-70.12760704,NEISO,LOAD
LD.LVERMORE12.5,44.47843555,-70.17169223,NEISO,LOAD
LD.GULFISLD34.5,44.15131047,-70.20855063,NEISO,LOAD
LD.BOWMN_ST34.5,44.2543138,-69.80356992,NEISO,LOAD
LD.PUDDLDCK34.5,44.33143882,-69.85411347,NEISO,LOAD
LD.AUGSTA_E34.5,44.32941273,-69.74607141,NEISO,LOAD
LD.BROWN_CR12.5,44.25298437,-69.77509559,NEISO,LOAD
LD.JAY     115,44.507769,-70.21637,NEISO,LOAD
LD.RILEY   12.5,44.50755211,-70.24812406,NEISO,LOAD
LD.WOODSTCK34.5,44.38952425,-70.62932458,NEISO,LOAD
LD.NORWAY  34.5,44.20727792,-70.52834605,NEISO,LOAD
LD.HOTEL_RD34.5,44.06819309,-70.26721659,NEISO,LOAD
LD.LEWSTN_L34.5,44.08686858,-70.21187457,NEISO,LOAD
LD.CROWLEYS34.5,44.05949475,-70.15501642,NEISO,LOAD
LD.RAYMOND 34.5,43.96915454,-70.41146755,NEISO,LOAD
LD.TOPSHAM 34.5,43.95954287,-69.97672554,NEISO,LOAD
LD.BATH    34.5,43.9033126,-69.83503517,NEISO,LOAD
LD.MOSHERS 34.5,43.68434954,-70.39953531,NEISO,LOAD
LD.ELM_ST  34.5,43.7867553,-70.19904287,NEISO,LOAD
LD.SPRNG_ST34.5,43.65162078,-70.3602472,NEISO,LOAD
LD.REDBROOK34.5,43.9399,-70.4457,NEISO,LOAD
LD.PLSNT_HL34.5,43.59834702,-70.29403427,NEISO,LOAD
LD.HNKLY_PD12.5,43.6276414,-70.25588542,NEISO,LOAD
LD.CAPE    34.5,43.6426648,-70.25478818,NEISO,LOAD
LD.SEWAL_ST34.5,43.65446299,-70.29247322,NEISO,LOAD
LD.PRID_CRN34.5,43.897996,-70.22752703,NEISO,LOAD
LD.LOUDEN  34.5,43.529291,-70.503305,NEISO,LOAD
LD.BIDDEFRD34.5,43.4968,-70.4567,NEISO,LOAD
LD.PRATT&W 115,43.42912214,-70.73467331,NEISO,LOAD
LD.QUAKR_HL34.5,43.4076119,-70.71123127,NEISO,LOAD
LD.BRANCH  34.5,43.421864,-70.571096,NEISO,LOAD
LD.SANFORD 34.5,43.4415,-70.7746,NEISO,LOAD
LD.LOVELL  34.5,44.12195359,-70.88855422,NEISO,LOAD
LD.HARRISON115,45.433962,-69.977862,NEISO,LOAD
LD.SYKES_RD13.8,41.74040064,-71.1159722,NEISO,LOAD
LD.NASNVILL13.8,41.97419408,-71.60978441,NEISO,LOAD
LD.STOUGHTN13.8,42.11744492,-71.09621477,NEISO,LOAD
LD.EASTON  13.8,42.03030091,-71.11526174,NEISO,LOAD
LD.PHILP_LN13.8,42.11437886,-70.87085799,NEISO,LOAD
LD.NORWELL 13.8,42.17782492,-70.80242794,NEISO,LOAD
LD.PLYMOUTH13.8,42.10040975,-70.92605786,NEISO,LOAD
LD.N_ABNGTN13.8,42.1262334,-70.93453574,NEISO,LOAD
LD.WATER_ST13.8,42.101532,-70.831453,NEISO,LOAD
LD.SCITUATE13.8,42.196007,-70.725044,NEISO,LOAD
LD.DUPONT  13.8,42.07533225,-71.00418122,NEISO,LOAD
LD.AMES_ST 13.8,42.10142371,-71.01684661,NEISO,LOAD
LD.PARKVIEW13.8,42.10251925,-71.07305221,NEISO,LOAD
LD.BELMONT 13.8,42.06582694,-71.05466307,NEISO,LOAD
LD.E_BRGWTR13.8,42.02378967,-70.96653325,NEISO,LOAD
LD.MILL_ST 13.8,41.99548408,-70.93784971,NEISO,LOAD
LD.DIGHTON 13.8,41.81623109,-71.13608175,NEISO,LOAD
LD.HATHAWAY13.8,41.73932981,-71.14604616,NEISO,LOAD
LD.BATES_ST13.8,41.68016687,-71.1679695,NEISO,LOAD
LD.SWANSEA 13.8,41.828144,-71.226872,NEISO,LOAD
LD.WSHNGTN 14.4,41.82610163,-71.41017344,NEISO,LOAD
LD.PAWTUCKT13.8,41.86838815,-71.33054459,NEISO,LOAD
LD.VALLEY  13.8,41.98015396,-71.52130758,NEISO,LOAD
LD.STAPLES 13.8,41.98078403,-71.44581413,NEISO,LOAD
LD.RVERSIDE13.8,41.99380826,-71.47250885,NEISO,LOAD
LD.FARNUM  23,41.97935401,-71.5233689,NEISO,LOAD
LD.FLAGG_PD69,42.596045,-71.95368,NEISO,LOAD
LD.HUDSN_HD13.8,42.7682008,-71.43929939,NEISO,LOAD
LD.BARNSTBL115,41.6864468,-70.28490693,NEISO,LOAD
LD.FALMTH_T115,41.5636596,-70.6114559,NEISO,LOAD
LD.HATCHVIL23,41.61838467,-70.55458696,NEISO,LOAD
LD.MASHPEE 23,41.64513565,-70.48508094,NEISO,LOAD
LD.OTIS    23,41.66036689,-70.53299592,NEISO,LOAD
LD.SANDWICH24.0,41.76644516,-70.55818112,NEISO,LOAD
LD.PAVEPAWS23,41.75182953,-70.54563374,NEISO,LOAD
LD.MANOMET 23,41.77804822,-70.5440836,NEISO,LOAD
LD.VALLEYNB23,41.78280034,-70.60137129,NEISO,LOAD
LD.TREMONT 23,41.80124358,-70.76442267,NEISO,LOAD
LD.CRYSTLSP13.2,41.67398222,-70.83216889,NEISO,LOAD
LD.KINGSTON23,42.00511206,-70.75632977,NEISO,LOAD
LD.DUXBURY 23,42.05383368,-70.72264706,NEISO,LOAD
LD.MARSHFEL23,42.08037905,-70.69516662,NEISO,LOAD
LD.ROCHESTR13.2,41.73830816,-70.84983671,NEISO,LOAD
LD.ARSENE  13.2,41.63991456,-70.87519957,NEISO,LOAD
LD.ACUSHNET13.2,41.67100833,-70.913566,NEISO,LOAD
LD.PINE_ST 13.2,41.653018,-70.898629,NEISO,LOAD
LD.INDSTLPK13.2,41.71944569,-70.94916397,NEISO,LOAD
LD.FISHR_RD13.2,41.59221544,-71.03170322,NEISO,LOAD
LD.WAREHAM 23,41.75633149,-70.71315379,NEISO,LOAD
LD.WINGLANE13.2,41.67742736,-70.89706237,NEISO,LOAD
LD.PUTNAM  13.8,42.38430461,-71.09823415,NEISO,LOAD
LD.ALEWIFE 13.8,42.391225,-71.142283,NEISO,LOAD
LD.KENDALL 13.8,42.3633,-71.0792,NEISO,LOAD
LD.SANDY_PD23,42.570482,-71.524443,NEISO,LOAD
LD.MILLBURY69,42.19164385,-71.74285603,NEISO,LOAD
LD.N_OXFORD13.2,42.153479,-71.854632,NEISO,LOAD
LD.KENTCNTY34.5,41.6833987,-71.47939304,NEISO,LOAD
LD.BRAYTNPT115,41.7125,-71.1914,NEISO,LOAD
LD.MELROSE 23,42.46966284,-71.05046298,NEISO,LOAD
LD.PINEHRST13.2,42.53908842,-71.21661911,NEISO,LOAD
LD.TEWKSBRY13.8,42.62388,-71.246178,NEISO,LOAD
LD.PRAT_J  69,42.47157122,-71.73761937,NEISO,LOAD
LD.LAUREL_C13.8,42.537817,-71.688158,NEISO,LOAD
LD.COMERFRD34.5,44.32109966,-72.00337522,NEISO,LOAD
LD.MOORE   13.8,44.32916049,-71.88465793,NEISO,LOAD
LD.SLAYTNHL13.8,43.49007951,-72.4088391,NEISO,LOAD
LD.MT_SUPP 13.8,43.662859,-72.254712,NEISO,LOAD
LD.WHTNS_PD13.8,42.10563533,-71.67133994,NEISO,LOAD
LD.UXBRIDGE13.8,42.07415674,-71.62304759,NEISO,LOAD
LD.E_MAIN_S13.8,42.24409095,-71.83217633,NEISO,LOAD
LD.N_CHELM 23,42.61605007,-71.36302456,NEISO,LOAD
LD.MEABROOK23.0,42.62830257,-71.38362393,NEISO,LOAD
LD.PERRY_ST13.8,42.6388479,-71.30225643,NEISO,LOAD
LD.TIVERTON12.5,41.6417,-71.17,NEISO,LOAD
LD.WOOD_RV 34.5,41.42764911,-71.70411431,NEISO,LOAD
LD.KENYON  12.5,41.4384765,-71.63229276,NEISO,LOAD
LD.W_KNGSTN34.5,41.47277708,-71.57435973,NEISO,LOAD
LD.DRUMROCK23,41.69684881,-71.47272318,NEISO,LOAD
LD.PONTIAC 12.5,41.73586,-71.455398,NEISO,LOAD
LD.LINCOLN 12.5,41.75041174,-71.43908292,NEISO,LOAD
LD.W_CRNSTN12.5,41.813787,-71.51130425,NEISO,LOAD
LD.JOHNSTON23,41.81448809,-71.47464838,NEISO,LOAD
LD.PUTNM_PK12.5,41.86680871,-71.52207851,NEISO,LOAD
LD.WOLF_HL 23,41.88152413,-71.52692795,NEISO,LOAD
LD.FARNPIKE12.5,41.90121927,-71.5308547,NEISO,LOAD
LD.CHRTLYPD23,41.944861,-71.236997,NEISO,LOAD
LD.BEAVR_PD13.8,42.119081,-71.487075,NEISO,LOAD
LD.UNION_ST13.8,42.05970356,-71.39821264,NEISO,LOAD
LD.S_WRENTM23,41.730541,-71.251403,NEISO,LOAD
LD.BRISTLRI12.5,41.675385,-71.269844,NEISO,LOAD
LD.MINK    13.8,41.79037065,-71.33051725,NEISO,LOAD
LD.READ_ST 13.2,41.91432534,-71.3421254,NEISO,LOAD
LD.PHILIPD 23,41.83463139,-71.29189932,NEISO,LOAD
LD.WAMPNOAG12.5,41.80222828,-71.34831862,NEISO,LOAD
LD.FRNKLNSQ11.5,41.81634201,-71.40550013,NEISO,LOAD
LD.ADMIRAL 23.0,41.84167248,-71.42115082,NEISO,LOAD
LD.HOPKINTN13.8,42.18795678,-71.73703454,NEISO,LOAD
LD.RCKY_HL 13.8,42.168483,-71.57544,NEISO,LOAD
LD.DEPOT   13.8,42.15563089,-71.48254569,NEISO,LOAD
LD.WBSTR_ST13.8,42.46449495,-71.87403952,NEISO,LOAD
LD.BARRE   13.8,42.39141423,-72.09896097,NEISO,LOAD
LD.WENDLDPT13.8,42.56133488,-72.39985832,NEISO,LOAD
LD.HARRIMAN69,42.75821976,-72.92984002,NEISO,LOAD
LD.ADAMS   23,42.633979,-73.093479,NEISO,LOAD
LD.FLORENCE13.8,42.344709,-72.649328,NEISO,LOAD
LD.LOWRDFLD69,42.552631,-72.691581,NEISO,LOAD
LD.THORNDIK13.2,42.19892191,-72.3445087,NEISO,LOAD
LD.PALMER  13.2,42.14511819,-72.30285033,NEISO,LOAD
LD.PALMER  69,42.14531645,-72.30305295,NEISO,LOAD
LD.LITTLRST13.2,42.17454695,-72.12128501,NEISO,LOAD
LD.W_CHRLTN13.2,42.13712017,-72.02791336,NEISO,LOAD
LD.BLOMNGDL13.8,42.24389285,-71.83201095,NEISO,LOAD
LD.VERNONHL13.8,42.238526,-71.795484,NEISO,LOAD
LD.ROLF_AVE69,42.274133,-71.735628,NEISO,LOAD
LD.WYMNGRDN115,42.1902824,-71.74576183,NEISO,LOAD
LD.NRTHBORO69,42.346393,-71.607305,NEISO,LOAD
LD.NMARLBRO13.8,42.345924,-71.552292,NEISO,LOAD
LD.NASHUA  13.8,42.28419663,-71.79915261,NEISO,LOAD
LD.N_QUINCY13.8,42.25288,-71.002274,NEISO,LOAD
LD.LITCHFLD13.8,42.508508,-71.745489,NEISO,LOAD
LD.E_WINCHD13.8,42.685724,-72.025252,NEISO,LOAD
LD.BELLWSFL6.9,43.13258417,-72.44189047,NEISO,LOAD
LD.WILDER  13.8,43.68327043,-72.31183953,NEISO,LOAD
LD.AYER    69,42.56591862,-71.59297856,NEISO,LOAD
LD.E_TEWKS 13.2,42.62388,-71.246178,NEISO,LOAD
LD.MAPLWOOD13.8,42.43178306,-71.04582008,NEISO,LOAD
LD.EVERETT 23,42.40947989,-71.05466064,NEISO,LOAD
LD.LYNN    23,42.45472568,-70.95153694,NEISO,LOAD
LD.GE_RIVER13.8,42.4472011,-70.96638438,NEISO,LOAD
LD.REVERE  23,42.40289698,-71.0074154,NEISO,LOAD
LD.BARTH_ST115,42.50922835,-70.97452021,NEISO,LOAD
LD.W_SALEM 13.8,42.50524725,-70.92727417,NEISO,LOAD
LD.RAILYARD13.8,42.516452,-70.959318,NEISO,LOAD
LD.SALEM   23,42.5267,-70.8792,NEISO,LOAD
LD.WATER_RV23,42.54355811,-70.92860006,NEISO,LOAD
LD.S_DANVRS115,42.58637247,-70.97219958,NEISO,LOAD
LD.IPSWICH 115,42.67838731,-70.98172143,NEISO,LOAD
LD.KING_ST 23,42.73655223,-71.01232275,NEISO,LOAD
LD.MIDDLTON115,42.62952858,-71.04851111,NEISO,LOAD
LD.WOODCHUK13.2,42.67317344,-71.05767354,NEISO,LOAD
LD.WARD_HIL23,42.74421518,-71.11368879,NEISO,LOAD
LD.E_METHUE13.2,42.72650547,-71.21220113,NEISO,LOAD
LD.W_METHUE23,42.72650547,-71.21220113,NEISO,LOAD
LD.S_BROADW23,42.6994,-71.1653,NEISO,LOAD
LD.N_DRACUT13.2,42.688266,-71.309856,NEISO,LOAD
LD.E_DRACUT13.2,42.66952825,-71.25247718,NEISO,LOAD
LD.PELHAM  13.2,42.73662382,-71.30981435,NEISO,LOAD
LD.S_RANDOL13.8,42.162971,-71.039833,NEISO,LOAD
LD.FITCH_RD69,42.544815,-71.861333,NEISO,LOAD
LD.WOODSIDE69,42.326402,-71.620389,NEISO,LOAD
LD.GRAFTON 69,42.250027,-71.665023,NEISO,LOAD
LD.WARE    69,42.270269,-72.205263,NEISO,LOAD
LD.VERNON  69,42.771549,-72.515318,NEISO,LOAD
LD.OTTER_RV69,42.631808,-72.060554,NEISO,LOAD
LD.SEARS   69,42.87086339,-72.92516196,NEISO,LOAD
LD.DEERFLD569,42.886085,-72.983974,NEISO,LOAD
LD.PONDVIL 69,42.199574,-71.823406,NEISO,LOAD
LD.WESTBORO69,42.269562,-71.615074,NEISO,LOAD
LD.GREENDAL13.8,42.31809988,-71.79437744,NEISO,LOAD
LD.WACHUS  69,42.36027793,-71.77585947,NEISO,LOAD
LD.M_WEYMTH13.8,42.22013499,-70.92045609,NEISO,LOAD
LD.AMHERST 34.5,42.80919617,-71.59295702,NEISO,LOAD
LD.SCOBIE  12.5,42.93660469,-71.23652899,NEISO,LOAD
LD.LAWRENCE34.5,42.79089076,-71.37804704,NEISO,LOAD
LD.PEMIGWAS34.5,43.59675125,-71.70937159,NEISO,LOAD
LD.RIMMON  34.5,43.030179,-71.565322,NEISO,LOAD
LD.LOSTNATN34.5,44.59407537,-71.49447167,NEISO,LOAD
LD.BERLN_NH22,44.402998,-71.114911,NEISO,LOAD
LD.BERLN_NH34.5,44.402998,-71.114911,NEISO,LOAD
LD.WHITEFLD34.5,44.41614837,-71.4770813,NEISO,LOAD
LD.N_WODSTK34.5,44.0343,-71.6879,NEISO,LOAD
LD.BEEBE   34.5,43.82812845,-71.64023685,NEISO,LOAD
LD.WHITE_LK34.5,43.84811385,-71.20682916,NEISO,LOAD
LD.INTERVAL34.5,42.9643,-71.4275,NEISO,LOAD
LD.SACO_VLY34.5,44.00772382,-71.0872713,NEISO,LOAD
LD.ASHLAND 34.5,43.69156592,-71.63727811,NEISO,LOAD
LD.OAK_HILL34.5,43.316566,-71.589497,NEISO,LOAD
LD.WEBSTER 34.5,43.45569872,-71.67397689,NEISO,LOAD
LD.LACONIA 34.5,43.56051365,-71.3699646,NEISO,LOAD
LD.NORTH_RD34.5,43.229819,-72.151606,NEISO,LOAD
LD.GARVINS 34.5,43.22127494,-71.44134998,NEISO,LOAD
LD.EDDY    34.5,43.0031482,-71.47309753,NEISO,LOAD
LD.GREGGS  34.5,43.02859,-71.598487,NEISO,LOAD
LD.PINEHILL34.5,43.12237,-71.367885,NEISO,LOAD
LD.JACKMAN 34.5,43.11203438,-71.92611742,NEISO,LOAD
LD.KEENE   12.5,42.9373,-72.2818,NEISO,LOAD
LD.SWANZEY 12.5,42.88,-72.2839,NEISO,LOAD
LD.CHSTNTHL34.5,42.79776953,-72.48296193,NEISO,LOAD
LD.MONADNCK34.5,42.824395,-72.185824,NEISO,LOAD
LD.MAMOTHRD34.5,43.1696,-70.9446,NEISO,LOAD
LD.RDSFERRY34.5,42.908685,-71.547082,NEISO,LOAD
LD.S_MILFRD34.5,42.82011483,-71.64424053,NEISO,LOAD
LD.ANHEUSBH12.5,42.825675,-71.486751,NEISO,LOAD
LD.HUDSON  34.5,42.7682,-71.4393,NEISO,LOAD
LD.BRIDGE_S34.5,42.904715,-71.424034,NEISO,LOAD
LD.LONGHILL34.5,42.726255,-71.529616,NEISO,LOAD
LD.HUSE_RD 34.5,42.95335561,-71.43132579,NEISO,LOAD
LD.CHESTER 34.5,42.93644892,-71.23717,NEISO,LOAD
LD.OCEAN_RD34.5,43.04227061,-70.81323557,NEISO,LOAD
LD.SCHILLER115,43.0978,-70.7842,NEISO,LOAD
LD.RESITNCE34.5,43.0978,-70.7842,NEISO,LOAD
LD.KNGSTNPS34.5,42.9358,-71.0541,NEISO,LOAD
LD.DOVER   34.5,43.1977,-70.8742,NEISO,LOAD
LD.MADBURY 34.5,43.16014187,-70.93086173,NEISO,LOAD
LD.RCHSTER 34.5,43.30804534,-70.99786925,NEISO,LOAD
LD.TAUNTON 13.8,41.8653,-71.1061,NEISO,LOAD
LD.E_SHORE 13.8,41.28805743,-72.90450337,NEISO,LOAD
LD.MILL_RV 13.8,41.30647303,-72.9067628,NEISO,LOAD
LD.QUINNIPC13.8,41.30030328,-72.88998454,NEISO,LOAD
LD.N_HAVEN 13.8,41.386546,-72.855371,NEISO,LOAD
LD.SACKETT 13.8,41.36366154,-72.88699253,NEISO,LOAD
LD.MIX_AVE 13.8,41.372281,-72.924069,NEISO,LOAD
LD.BROADWAY13.8,41.31121996,-72.93005645,NEISO,LOAD
LD.WATRSTUI13.8,41.30170585,-72.92133123,NEISO,LOAD
LD.ELM_WEST13.8,41.20146209,-73.08144088,NEISO,LOAD
LD.ALLINGS 13.8,41.21245571,-73.08103855,NEISO,LOAD
LD.WOODMONT13.8,41.228161,-72.991493,NEISO,LOAD
LD.MILVON  13.8,41.224896,-73.062924,NEISO,LOAD
LD.BAIRD   13.8,41.18529262,-73.14437783,NEISO,LOAD
LD.CONGRESS13.8,41.18302975,-73.1891439,NEISO,LOAD
LD.PEQUONCK13.8,41.17757158,-73.1976571,NEISO,LOAD
LD.ASHCREEK13.8,41.14948268,-73.23445628,NEISO,LOAD
LD.HAWTHORN13.8,41.117596,-73.407898,NEISO,LOAD
LD.OLD_TOWN13.8,41.227917,-73.209174,NEISO,LOAD
LD.TRAPFALS13.8,41.3165,-73.0932,NEISO,LOAD
LD.ANSONIA 13.8,41.3462,-73.079,NEISO,LOAD
LD.INDIAN  13.8,41.3207,-73.089,NEISO,LOAD
LD.JUNE_ST 13.8,41.31944,-72.95482,NEISO,LOAD
LD.BARNUM  13.8,41.18613033,-73.17056987,NEISO,LOAD
LD.SO_HERO 13.2,44.643509,-73.274933,NEISO,LOAD
LD.BERLINVT34.5,44.22171023,-72.55858713,NEISO,LOAD
LD.STJHNSBY34.5,44.45737488,-71.84244108,NEISO,LOAD
LD.IRASBURG46,44.80420521,-72.27656299,NEISO,LOAD
LD.HIGHGATE46,44.93844654,-73.05402966,NEISO,LOAD
LD.STALBANS34.5,44.80444035,-73.09883959,NEISO,LOAD
LD.E_FAIRFX34.5,44.63655304,-72.9312495,NEISO,LOAD
LD.ESSEX   34.5,44.48122232,-73.11305759,NEISO,LOAD
LD.EAST_AVE13.8,44.48065778,-73.18860737,NEISO,LOAD
LD.QUEENCTY34.5,44.44574863,-73.21853373,NEISO,LOAD
LD.QUEENCTY13.8,44.44574863,-73.21853373,NEISO,LOAD
LD.NEW_HAVN46,44.11924033,-73.16500241,NEISO,LOAD
LD.MIDLEBRY46,44.01109262,-73.15995438,NEISO,LOAD
LD.BLISVILL46,43.57618728,-73.23307553,NEISO,LOAD
LD.N_RUTLND46,43.63346941,-73.05766363,NEISO,LOAD
LD.ASCUTNEY46,43.40109078,-72.41942716,NEISO,LOAD
LD.FLORNCE 46,43.708194,-73.06293352,NEISO,LOAD
LD.WINDSOR 46,43.48981687,-72.40860659,NEISO,LOAD
LD.HARTFDVT46,43.66361429,-72.36917275,NEISO,LOAD
LD.CHELSEAV46,43.96082409,-72.47104413,NEISO,LOAD
LD.MIDDLESX34.5,44.28918704,-72.67958427,NEISO,LOAD
LD.VERNONRD69,42.864653,-72.547726,NEISO,LOAD
LD.BENINGTN46,42.88225435,-73.17207089,NEISO,LOAD
LD.BENINGTN69,42.88225845,-73.1720628,NEISO,LOAD
LD.COLD_RV 46,43.56527951,-72.94571628,NEISO,LOAD
LD.N_READNG13.8,42.575184,-71.077606,NEISO,LOAD
LD.BUDDNGTN33.0,41.37414865,-72.04531859,NEISO,LOAD
LD.DUDLEY  34.5,41.53603179,-72.10238527,NEISO,LOAD
LD.FORT_HIL34.5,41.47109911,-72.11254279,NEISO,LOAD
LD.BEAN_HIL13.8,41.55898979,-72.11862376,NEISO,LOAD
LD.STERLING13.8,42.45191888,-71.73743438,NEISO,LOAD
LD.PAXTON  115,42.311203,-71.92813,NEISO,LOAD
LD.W_BOYLST13.8,42.32392057,-71.79372918,NEISO,LOAD
LD.ASHBRNHM115,42.632041,-71.93553,NEISO,LOAD
LD.MANSFLD 13.8,41.98848788,-71.26450753,NEISO,LOAD
LD.N_ATTLEB13.8,41.98912584,-71.29643654,NEISO,LOAD
LD.UNITIL  34.5,43.226365,-71.555695,NEISO,LOAD
LD.LITTLTN 25,42.54631,-71.47364,NEISO,LOAD
LD.HOLYOKE 13.8,42.19973816,-72.59709831,NEISO,LOAD
LD.INGLESID13.8,42.17781953,-72.63388081,NEISO,LOAD
LD.BERKSHRE23,42.46871174,-73.09345636,NEISO,LOAD
LD.LUDLOW  13.8,42.19502675,-72.44682217,NEISO,LOAD
LD.N_BLOOM 23,41.891278,-72.75804,NEISO,LOAD
LD.MANCHSTR23,41.7700254,-72.55699552,NEISO,LOAD
LD.CARD    23,41.701983,-72.234698,NEISO,LOAD
LD.CARD    69,41.701983,-72.234698,NEISO,LOAD
LD.MILSTONE345,41.31469723,-72.1650083,NEISO,LOAD
LD.GALE_FRY69,41.434103,-72.079427,NEISO,LOAD
LD.CONN_YK 115,,,NEISO,N/A
LD.SOTHNGTN27.6,41.58836323,-72.86643097,NEISO,LOAD
LD.CANAL_NU23,41.57255578,-72.97540034,NEISO,LOAD
LD.NOERA_ST13.8,41.56613905,-73.02513146,NEISO,LOAD
LD.PARTRIDG23,42.48742786,-73.21660492,NEISO,LOAD
LD.DOREEN  23,42.4431,-73.2061,NEISO,LOAD
LD.OSWALD  23,42.43722612,-73.28759149,NEISO,LOAD
LD.WOODLAND23,42.335,-73.2364,NEISO,LOAD
LD.PLEASANT23,42.28482225,-73.24074038,NEISO,LOAD
LD.BLANFORD23,42.216735,-72.981655,NEISO,LOAD
LD.PLAINFLD23,42.483625,-72.924703,NEISO,LOAD
LD.ASHFIELD23,42.500268,-72.811983,NEISO,LOAD
LD.CUMBRLND13.8,42.56895,-72.646127,NEISO,LOAD
LD.MONTAGUE13.8,42.58765696,-72.57807277,NEISO,LOAD
LD.FRENCHKG13.8,42.59940909,-72.50022953,NEISO,LOAD
LD.PROSPECT13.8,42.565402,-71.593169,NEISO,LOAD
LD.PINESHED115,42.248935,-72.565102,NEISO,LOAD
LD.MIDWAY  13.8,42.321617,-72.595344,NEISO,LOAD
LD.GUNN    23,42.1985,-72.656703,NEISO,LOAD
LD.BUCK_PD 115,42.17542261,-72.73438499,NEISO,LOAD
LD.AGAWAM  13.8,42.09516172,-72.59637227,NEISO,LOAD
LD.ELM     23,42.116657,-72.627575,NEISO,LOAD
LD.SOUTHWCK23,42.01507002,-72.7943804,NEISO,LOAD
LD.SILVER  13.8,42.052731,-72.669565,NEISO,LOAD
LD.PIPER   13.8,42.13858561,-72.64073744,NEISO,LOAD
LD.CHICOPEE13.8,42.148701,-72.607864,NEISO,LOAD
LD.ORCHARD 13.8,42.163292,-72.50471,NEISO,LOAD
LD.E_SPRFLD13.8,42.15855127,-72.53723264,NEISO,LOAD
LD.BRECKWOD13.8,42.11556077,-72.52354026,NEISO,LOAD
LD.W_SPRFLD13.8,42.09091032,-72.63484588,NEISO,LOAD
LD.CLINTON 13.8,42.10467059,-72.60114124,NEISO,LOAD
LD.SCITICO 23,41.97868315,-72.51043805,NEISO,LOAD
LD.FRNCONIA13.8,42.048051,-72.549419,NEISO,LOAD
LD.BLOOMFLD23,41.82902044,-72.72861418,NEISO,LOAD
LD.NW_HARTF23,41.76389849,-72.69250136,NEISO,LOAD
LD.SW_HARTF23,41.733061,-72.740374,NEISO,LOAD
LD.S_MEADOW23,41.75031456,-72.65405681,NEISO,LOAD
LD.E_HARTFR23,41.74758921,-72.64270938,NEISO,LOAD
LD.S_WINDSR13.8,41.84021332,-72.60026387,NEISO,LOAD
LD.BARBOURH23,41.85443298,-72.52912039,NEISO,LOAD
LD.ROCKVILE115,41.86157231,-72.46964022,NEISO,LOAD
LD.ENFIELD 27.6,41.97348383,-72.54845674,NEISO,LOAD
LD.WNDSRLKS27.6,41.84792374,-72.75357625,NEISO,LOAD
LD.FRMNGTON23,41.74171182,-72.79361764,NEISO,LOAD
LD.E_NBRITN13.8,41.678332,-72.779955,NEISO,LOAD
LD.BERLIN  13.8,41.56306583,-72.66267082,NEISO,LOAD
LD.ROCKY_HL23,41.67947,-72.657303,NEISO,LOAD
LD.WESTSIDE13.2,41.583724,-72.668679,NEISO,LOAD
LD.DOOLEY  13.2,41.562321,-72.650642,NEISO,LOAD
LD.PORTLAND23,41.584095,-72.624321,NEISO,LOAD
LD.HOPEWELL23,41.68100891,-72.55493321,NEISO,LOAD
LD.P&WAIRCT115,41.55414195,-72.59691173,NEISO,LOAD
LD.HADDAM  23,41.48857386,-72.49255967,NEISO,LOAD
LD.BOKUM   27.6,41.31850751,-72.38992747,NEISO,LOAD
LD.GREEN_HL23,41.328463,-72.55153,NEISO,LOAD
LD.BROOKLYN23.0,41.81659762,-71.91454654,NEISO,LOAD
LD.BRANFORD23,41.29241594,-72.80083288,NEISO,LOAD
LD.BRANF_RR115,41.29241594,-72.80083288,NEISO,LOAD
LD.STCKHOSE13.8,41.57193422,-72.14422504,NEISO,LOAD
LD.TUNNEL  23.0,41.5553,-72.0419,NEISO,LOAD
LD.TRACY   23.0,41.967538,-71.90126,NEISO,LOAD
LD.WILLIAMS13.2,41.36805549,-72.10406321,NEISO,LOAD
LD.MYSTC_NU34.5,41.366319,-71.95933074,NEISO,LOAD
LD.NE_SIMSB23,41.887569,-72.791187,NEISO,LOAD
LD.CANTON  23,41.83841893,-72.92663711,NEISO,LOAD
LD.FRNKLNDR13.2,41.79937978,-73.11637657,NEISO,LOAD
LD.CAMPVILL27.6,41.73778031,-73.08626609,NEISO,LOAD
LD.THOMASTN13.8,41.726594,-73.032231,NEISO,LOAD
LD.CHIPINHL13.8,41.68200211,-72.98666119,NEISO,LOAD
LD.BRISTOL 13.8,41.67114099,-72.94048437,NEISO,LOAD
LD.FORESTVL13.8,41.643781,-72.873801,NEISO,LOAD
LD.UNT_TECH115,,,NEISO,LOAD
LD.BLACK_RK13.8,41.67073,-72.846686,NEISO,LOAD
LD.E_MERDEN13.8,41.52817319,-72.76138754,NEISO,LOAD
LD.COLONY  13.8,41.51427709,-72.81683515,NEISO,LOAD
LD.WALREC  115,41.43977437,-72.83437679,NEISO,LOAD
LD.TODD    13.8,41.598453,-72.938988,NEISO,LOAD
LD.SHAWS_HL13.8,41.59145621,-73.06823389,NEISO,LOAD
LD.FREIGHT 13.8,41.536604,-72.988498,NEISO,LOAD
LD.BUNKR_HL13.8,41.56354922,-73.08613069,NEISO,LOAD
LD.S_NAUGTK13.8,41.446054,-73.035908,NEISO,LOAD
LD.BEACN_FL13.8,41.44386313,-73.06908962,NEISO,LOAD
LD.STEVENSN27.6,41.38227713,-73.17070787,NEISO,LOAD
LD.SANDY_HK23,41.420096,-73.282061,NEISO,LOAD
LD.CARML_HL23,41.60109042,-73.24111897,NEISO,LOAD
LD.BULLSBDG27.6,41.65897594,-73.49141987,NEISO,LOAD
LD.W_BROKFD13.8,41.48255144,-73.431424,NEISO,LOAD
LD.SHEPAUG 69,41.4486884,-73.29459608,NEISO,LOAD
LD.BATES_RK13.8,41.529698,-73.230524,NEISO,LOAD
LD.STONY_HL13.8,41.411611,-73.398484,NEISO,LOAD
LD.NEWTOWN 13.8,41.377002,-73.316436,NEISO,LOAD
LD.TRIANGLE13.8,41.388207,-73.514815,NEISO,LOAD
LD.MIDLE_RV13.8,41.441001,-73.507842,NEISO,LOAD
LD.PEACABLE115,41.27483355,-73.50959899,NEISO,LOAD
LD.NORWALK 27.6,41.12744304,-73.42835134,NEISO,LOAD
LD.NORWALK 13.8,41.12744304,-73.42835134,NEISO,LOAD
LD.GLENBROK13.2,41.0617415,-73.52023193,NEISO,LOAD
LD.WATERSDE13.2,41.067425,-73.561403,NEISO,LOAD
LD.COSCOB  26.4,41.02894796,-73.59791973,NEISO,LOAD
LD.TOMAC   27.6,41.055869,-73.5671,NEISO,LOAD
LD.SOUTHEND13.2,41.076941,-73.535931,NEISO,LOAD
LD.DARIEN  13.2,41.07557309,-73.48058458,NEISO,LOAD
LD.COMPO   13.8,41.113535,-73.351176,NEISO,LOAD
LD.FLAX_HL 13.8,41.109603,-73.443584,NEISO,LOAD
LD.NORWALKH115,41.12744304,-73.42835134,NEISO,LOAD
LD.WESTON  27.6,41.201283,-73.379669,NEISO,LOAD
LD.DEVON_RR115,41.20920811,-73.10730318,NEISO,LOAD
LD.PODICK  13.8,42.422828,-72.541152,NEISO,LOAD
LD.FALSVL  69,41.95598079,-73.36837225,NEISO,LOAD
LD.SALISBRY69,41.92179453,-73.46462386,NEISO,LOAD
LD.SASCOCRK115,41.13907,-73.337465,NEISO,LOAD
LD.WALNGFRD13.8,41.455391,-72.838322,NEISO,LOAD
LD.N_WALFRD13.8,41.49886672,-72.81196426,NEISO,LOAD
LD.NEWNGTON23,41.71785675,-72.75117365,NEISO,LOAD
LD.ELLSWRTH34.5,44.52901562,-68.38154098,NEISO,LOAD
LD.5CORNRS 13.2T1 LD,42.391185,-72.539501,NEISO,LOAD
LD.5CORNRS 13.2T2 LD,42.391185,-72.539501,NEISO,LOAD
LD.AMHRST  13.8EAST LD,42.373718,-72.519234,NEISO,LOAD
LD.AMHRST  13.8WEST LD,42.373718,-72.519234,NEISO,LOAD
LD.ANDREWSQ13.8110AC LD,42.32927657,-71.05853409,NEISO,LOAD
LD.ANDREWSQ13.8110BD LD,42.32927657,-71.05853409,NEISO,LOAD
LD.BALDWIN 13.82X LD,41.524346,-73.0399,NEISO,LOAD
LD.BALDWIN 13.83X LD,41.524346,-73.0399,NEISO,LOAD
LD.BILERCA 23  T1 LD,42.574619,-71.274734,NEISO,LOAD
LD.BILERCA 23  T2 LD,42.574619,-71.274734,NEISO,LOAD
LD.BLACKBRN115 1X LD,41.73287968,-71.44323338,NEISO,LOAD
LD.BLACKBRN115 2X LD,41.73287968,-71.44323338,NEISO,LOAD
LD.CEDARHTS13.22X LD,41.106574,-73.555307,NEISO,LOAD
LD.CEDARHTS13.23X LD,41.106574,-73.555307,NEISO,LOAD
LD.CHATHAM 14.4,42.359655,-71.054744,NEISO,LOAD
LD.CLARKSON12.5T1 LD,41.84242935,-71.42120332,NEISO,LOAD
LD.CLARKSON12.5T2 LD,41.84242935,-71.42120332,NEISO,LOAD
LD.CROSS_RD13.22X LD,41.64950121,-71.00759016,NEISO,LOAD
LD.CROSS_RD13.21X LD,41.64950121,-71.00759016,NEISO,LOAD
LD.DAVISVIL34.5T1 LD,41.563869,-71.446241,NEISO,LOAD
LD.DAVISVIL34.5T2 LD,41.563869,-71.446241,NEISO,LOAD
LD.DEWAR_ST13.8110A LD,42.30839293,-71.05501503,NEISO,LOAD
LD.DEWAR_ST13.8110B LD,42.30839293,-71.05501503,NEISO,LOAD
LD.DRAGONCT115,44.7443,-68.015,NEISO,LOAD
LD.E_BEVRLY34.5T10 LD,42.558426,-70.880058,NEISO,LOAD
LD.E_BEVRLY34.5T20 LD,42.558426,-70.880058,NEISO,LOAD
LD.E_HOLBRK23  T1 LD,42.16483447,-70.97958137,NEISO,LOAD
LD.E_HOLBRK23  T2 LD,42.16483447,-70.97958137,NEISO,LOAD
LD.E_WEYMTH23  T1 LD,42.18767359,-70.93096365,NEISO,LOAD
LD.E_WEYMTH23  T2 LD,42.18767359,-70.93096365,NEISO,LOAD
LD.FIELD_ST23  517-532,42.25421821,-70.99221874,NEISO,LOAD
LD.FIELD_ST23  517-533,42.25421821,-70.99221874,NEISO,LOAD
LD.FLANDERS23,41.36176299,-72.21013765,NEISO,LOAD
LD.FLANDERS115 2X LD,41.36176299,-72.21013765,NEISO,LOAD
LD.FRYBROOK23.0,41.67106266,-71.92122095,NEISO,LOAD
LD.FRYBROOK115 2X LD,43.9399,-70.4457,NEISO,N/A
LD.GE_CO_14115 1X LD,42.45586756,-73.21812733,NEISO,LOAD
LD.GE_CO_14115 2X LD,42.45586756,-73.21812733,NEISO,LOAD
LD.HANOVER 23  1690 LD,41.52665328,-72.82569012,NEISO,LOAD
LD.HANOVER 23  1355 LD,41.52665328,-72.82569012,NEISO,LOAD
LD.HAWKINS 13.8110A LD,42.3619813,-71.06068784,NEISO,LOAD
LD.HAWKINS 13.8110B LD,42.3619813,-71.06068784,NEISO,LOAD
LD.HIGH_ST 14.4510 LD,42.354683,-71.05432,NEISO,LOAD
LD.HIGH_ST 14.4511 LD,42.354683,-71.05432,NEISO,LOAD
LD.HOBRT_ST13.81X LD,42.22145533,-70.90596604,NEISO,LOAD
LD.HOBRT_ST13.82X LD,42.22145732,-70.90596872,NEISO,LOAD
LD.HYDE_PRK13.8110A,42.2392,-71.1324,NEISO,LOAD
LD.HYDE_PRK13.8110B,42.2392,-71.1324,NEISO,LOAD
LD.IBM     115 K21 LD,44.483772,-73.107129,NEISO,LOAD
LD.IBM     115 K24 LD,44.483772,-73.107129,NEISO,LOAD
LD.KNGSTNAB13.8110A LD,42.354327,-71.053496,NEISO,LOAD
LD.KNGSTNAB13.8110B LD,42.354327,-71.053496,NEISO,LOAD
LD.MAYNARD 13.8110A LD,42.433617,-71.448807,NEISO,LOAD
LD.MAYNARD 13.8110B LD,42.433617,-71.448807,NEISO,LOAD
LD.MIDDL_ST13.8T1 LD,42.223934,-70.995168,NEISO,LOAD
LD.MIDDL_ST13.8T2 LD,42.223934,-70.995168,NEISO,LOAD
LD.MIDLBORO14.4,41.89140633,-70.90386612,NEISO,LOAD
LD.MIDLBORO115 M1 LD,41.89140633,-70.90386612,NEISO,LOAD
LD.NEWTON  13.8,42.33580022,-71.20936639,NEISO,LOAD
LD.NEWTON  115 110B LD,42.33580022,-71.20936639,NEISO,LOAD
LD.NEWTON  115 110C LD,42.33580022,-71.20936639,NEISO,LOAD
LD.N_WOBURN13.8110A LD,42.46244947,-71.15416601,NEISO,LOAD
LD.N_WOBURN13.8110B LD,42.46244947,-71.15416601,NEISO,LOAD
LD.OLD_BAPT12.5T1 LD,41.60970782,-71.47737302,NEISO,LOAD
LD.OLD_BAPT12.5T2 LD,41.60970782,-71.47737302,NEISO,LOAD
LD.PROSPCT 69  1X LD,42.565402,-71.593169,NEISO,LOAD
LD.PROSPCT 69  2X LD,42.565402,-71.593169,NEISO,LOAD
LD.RIDGEFLD13.82X LD,41.28314628,-73.48742249,NEISO,LOAD
LD.RIDGEFLD13.83X LD,41.28314628,-73.48742249,NEISO,LOAD
LD.RIVERSDE23  1X LD,41.74758921,-72.64270938,NEISO,LOAD
LD.RIVERSDE115 2X LD,41.74758921,-72.64270938,NEISO,LOAD
LD.RIVERSDE23  3X LD,41.74758921,-72.64270938,NEISO,LOAD
LD.SNOW_ST 13.2T1 LD,42.0827916,-72.03182042,NEISO,LOAD
LD.SNOW_ST 13.2T2 LD,42.0827922,-72.0318172,NEISO,LOAD
LD.SOKANSET23  T1 LD,41.75528899,-71.45684438,NEISO,LOAD
LD.SOKANSET23  T2 LD,41.75528899,-71.45684438,NEISO,LOAD
LD.UNCASVIL13.21X LD,41.42899946,-72.11605391,NEISO,LOAD
LD.UNCASVIL13.22X LD,41.42899946,-72.11605391,NEISO,LOAD
LD.WAKEFLD 13.8,42.505325,-71.041678,NEISO,LOAD
LD.WAKEFLD 115 2X LD,42.505325,-71.041678,NEISO,LOAD
LD.WARREN  12.5T1 LD,41.730541,-71.251403,NEISO,LOAD
LD.WARREN  12.5T2 LD,41.730541,-71.251403,NEISO,LOAD
LD.WARREN  23  T5 LD,41.730541,-71.251403,NEISO,LOAD
LD.WARREN  23  T6 LD,41.730541,-71.251403,NEISO,LOAD
LD.WILMATC 27.61X2 LD,41.71301199,-72.22897925,NEISO,LOAD
LD.WILMATC 27.62X2 LD,41.71301199,-72.22897925,NEISO,LOAD
LD.W_ANDOVR34.5T10 LD,42.661304,-71.157516,NEISO,LOAD
LD.W_ANDOVR34.5T20 LD,42.661304,-71.157516,NEISO,LOAD
LD.W_POND  115 116X LD,41.92736922,-70.70301818,NEISO,LOAD
LD.W_POND  23,41.92736922,-70.70301818,NEISO,LOAD
LD.NORTHFLD345 ILCLOAD,42.6112833,-72.46808672,NEISO,N/A
LD.ROCKY_RV13.8,41.58248789,-73.43372739,NEISO,LOAD
HC.AYER    115,42.56591862,-71.59297856,NEISO,HUB COMPONENT
HC.CARPTRHL115,42.12918935,-71.99747276,NEISO,HUB COMPONENT
HC.CARPTRHL345,42.12918935,-71.99747276,NEISO,HUB COMPONENT
HC.LUDLOW  345,42.19502675,-72.44682217,NEISO,HUB COMPONENT
HC.MILLBURY115,42.19164385,-71.74285603,NEISO,HUB COMPONENT
HC.MILLBURY345,42.19164385,-71.74285603,NEISO,HUB COMPONENT
HC.NRTHBORO115,42.346393,-71.607305,NEISO,HUB COMPONENT
HC.PRAT_J  115,42.47157122,-71.73761937,NEISO,HUB COMPONENT
HC.PRAT_J  230,42.47157122,-71.73761937,NEISO,HUB COMPONENT
HC.ROLF_AVE13.8,42.274133,-71.735628,NEISO,HUB COMPONENT
HC.SANDY_PD115,42.570482,-71.524443,NEISO,HUB COMPONENT
HC.SANDY_PD345,42.570482,-71.524443,NEISO,HUB COMPONENT
HC.WACHUS  115,42.36027793,-71.77585947,NEISO,HUB COMPONENT
LD.BEARSWMP230 ILCLOAD,42.68390377,-72.94976943,NEISO,N/A
HC.NORTHFLD345,42.6112833,-72.46808672,NEISO,HUB COMPONENT
HC.BARRE   13.8,42.39141423,-72.09896097,NEISO,HUB COMPONENT
HC.BLOMNGDL13.8,42.24389285,-71.83201095,NEISO,HUB COMPONENT
HC.E_MAIN_S13.8,42.24409095,-71.83217633,NEISO,HUB COMPONENT
HC.GREENDAL13.8,42.31809988,-71.79437744,NEISO,HUB COMPONENT
HC.LITTLRST13.2,42.17471554,-72.12108365,NEISO,HUB COMPONENT
HC.LUDLOW  115,42.19502675,-72.44682217,NEISO,HUB COMPONENT
HC.NASHUA  13.8,42.28419663,-71.79915261,NEISO,HUB COMPONENT
HC.N_OXFORD13.2,42.153479,-71.854632,NEISO,HUB COMPONENT
HC.PALMER  13.2,42.14512832,-72.30287991,NEISO,HUB COMPONENT
HC.PAXTON  115,42.311203,-71.92813,NEISO,HUB COMPONENT
HC.STERLING115,42.45191969,-71.73743495,NEISO,HUB COMPONENT
HC.THORNDIK13.2,42.19893613,-72.34451198,NEISO,HUB COMPONENT
HC.VERNONHL13.8,42.238526,-71.795484,NEISO,HUB COMPONENT
HC.WBSTR_ST13.8,42.46449495,-71.87403952,NEISO,HUB COMPONENT
HC.WENDLDPT13.8,42.56132758,-72.39982613,NEISO,HUB COMPONENT
HC.WYMNGRDN115,42.23295531,-71.73001541,NEISO,HUB COMPONENT
HC.W_BOYLST115,42.32392057,-71.79372918,NEISO,HUB COMPONENT
HC.W_CHRLTN13.2,42.13711084,-72.02791606,NEISO,HUB COMPONENT
LD.COMERFRD230 SMDINTLD,44.32109966,-72.00337522,NEISO,LOAD
LD.CONVERTR115 SMDINTLD,,,NEISO,N/A
LD.HALVARSN345 SMDINTLD,41.29275741,-72.79369323,NEISO,LOAD
LD.ME_YK   345 SMDINTLD,43.99111937,-69.67142858,NEISO,LOAD
LD.ORRINGTN115 SMDINTLD,44.740515,-68.754097,NEISO,LOAD
LD.SANDY_PD345 SMDINTLD,42.570482,-71.524443,NEISO,LOAD
REST OF SYSTEM,,,NEISO,RESERVE
SOUTH WEST CONNECTICUT,,,NEISO,RESERVE
CONNECTICUT,,,NEISO,RESERVE
NORTH EAST MASSACHUSETTS & BOSTON,,,NEISO,RESERVE
LD.BURTT_RD13.2,42.603042,-71.124094,NEISO,LOAD
LD.TUNNEL  69,41.5553,-72.0419,NEISO,LOAD
LD.POWERSVL115,45.644511,-68.707006,NEISO,LOAD
LD.GREATBAY34.5,43.00878654,-70.88701729,NEISO,LOAD
LD.PORTSMTH34.5,43.0727,-70.7722,NEISO,LOAD
LD.DEBLOIS 34.5,44.79281792,-69.36181316,NEISO,LOAD
LD.BEVERLY 13.2,42.55521346,-70.88044156,NEISO,LOAD
LD.GOLDN_RK23,42.742609,-71.203547,NEISO,LOAD
UN.KENDALL 13.8KND1,42.3633,-71.0792,NEISO,GENERATOR
UN.KENDALL 13.8KND2,42.3633,-71.0792,NEISO,GENERATOR
UN.KENDALL 13.8KND3,42.3633,-71.0792,NEISO,GENERATOR
UN.BERLN_NH22  BERP,44.402998,-71.114911,NEISO,GENERATOR
LD.TORRNGTN115,41.77617369,-73.12100285,NEISO,LOAD
LD.ROLF_AVE13.8,42.274133,-71.735628,NEISO,LOAD
LD.DEXTR_RI13.8,41.625065,-71.240409,NEISO,LOAD
LD.TAFTS_CR34.5,44.449651,-73.111181,NEISO,LOAD
LD.CHALLENG34.5,44.06927232,-70.18653574,NEISO,LOAD
LD.ELLIS_AV14.4,42.194778,-71.198792,NEISO,LOAD
LD.OAK_ST  23,41.724439,-70.382995,NEISO,LOAD
LD.RAYNHAM 13.8,41.931854,-71.043152,NEISO,LOAD
LD.WESTFORD13.2,42.57084453,-71.42957139,NEISO,LOAD
LD.W_FARNUM115,41.9696146,-71.53900814,NEISO,LOAD
LD.BELL_RK 34.5,41.73730643,-71.08697215,NEISO,LOAD
LD.JOHNSTON12.5,41.81448809,-71.47464838,NEISO,LOAD
LD.FRNKLNSQ12.5,41.81634201,-71.40550013,NEISO,LOAD
LD.COLBURN 13.8,42.33166843,-71.11098195,NEISO,LOAD
LD.FRIVR_ME12.5,43.64287637,-70.27672865,NEISO,LOAD
LD.BEDFORD 34.5,42.9481,-71.5282,NEISO,LOAD
LD.KILVERT 12.5,41.72947784,-71.44972701,NEISO,LOAD
LD.SHUNOCK 13.8,41.41279397,-71.84655834,NEISO,LOAD
UN.JOHNSTON23  JLF2,41.81448809,-71.47464838,NEISO,GENERATOR
LD.E_CAMBRG13.8,42.37187738,-71.08621785,NEISO,LOAD
LD.BRENTWOD34.5,42.98373781,-71.08385758,NEISO,LOAD
LD.BRAYTNPT13.8,41.7125,-71.1914,NEISO,LOAD
UN.RUMFD_FL11.5RUMH,44.55070797,-70.5428625,NEISO,GENERATOR
LD.CHELSEA 13.8,42.39305127,-71.06693463,NEISO,LOAD
LD.SOTHNGTN13.8,41.58836323,-72.86643097,NEISO,LOAD
LD.PEACABLE13.8,41.27483355,-73.50959899,NEISO,LOAD
AR.BEARSWMP13.8BSW1P,42.68390377,-72.94976943,NEISO,GENERATOR
AR.BEARSWMP13.8BSW2P,42.68390377,-72.94976943,NEISO,GENERATOR
AR.NORTHFLD345 NFLDP,42.6112833,-72.46808672,NEISO,N/A
AR.ROCKY_RV13.8ROCKP,41.58252274,-73.43352698,NEISO,GENERATOR
UN.WATERSDE13.8WTSD,41.067425,-73.561403,NEISO,GENERATOR
LD.RAILYARD23,42.516452,-70.959318,NEISO,LOAD
UN.BRIGHTON13.8MAEP,42.331862,-71.198689,NEISO,N/A
LD.MELROSE 13.8,42.46966284,-71.05046298,NEISO,LOAD
UN.GRAHAM  46  OLDT,44.824164,-68.705372,NEISO,GENERATOR
LD.PLUMTREE13.8,41.39180848,-73.40242189,NEISO,LOAD
UN.DEVON   13.2DV15,41.20920811,-73.10730318,NEISO,GENERATOR
UN.LAUREL  13.8MI12,41.554518,-72.578165,NEISO,GENERATOR
UN.HIGHGATE13.8SWC1,44.93844654,-73.05402966,NEISO,GENERATOR
UN.HIGHGATE13.8SWC2,44.93844654,-73.05402966,NEISO,GENERATOR
UN.HOOSAC  69  HOSW,42.66749725,-72.98653438,NEISO,GENERATOR
UN.SHEFIELD34.5SHEF,44.66359509,-72.122881,NEISO,GENERATOR
UN.KIBBY   34.5KIBY,45.35535455,-70.54152882,NEISO,GENERATOR
UN.WATERBRY13.8WBRY,41.5444,-73.0417,NEISO,GENERATOR
UN.PIERCE  13.8ALP,41.455391,-72.838322,NEISO,GENERATOR
LD.ME_YK   13.2,43.99186043,-69.67195445,NEISO,LOAD
UN.WALNGFRD13.8JST3,41.455391,-72.838322,NEISO,GENERATOR
UN.WALNGFRD13.8JST4,41.455391,-72.838322,NEISO,GENERATOR
UN.WALNGFRD13.8JST5,41.455391,-72.838322,NEISO,GENERATOR
UN.BRIGHTON13.8MAT1,42.331862,-71.198689,NEISO,GENERATOR
UN.BRIGHTON13.8MAT2,42.331862,-71.198689,NEISO,GENERATOR
LD.W_KENNEB115,43.4092,-70.5791,NEISO,LOAD
UN.JAY     13.8VCG1,44.507769,-70.21637,NEISO,GENERATOR
UN.JAY     13.8VCG2,44.507769,-70.21637,NEISO,GENERATOR
UN.JAY     13.8VCG3,44.507769,-70.21637,NEISO,GENERATOR
LD.KIMBL_RD34.5,44.15188318,-70.6336738,NEISO,LOAD
LD.MILLBURY13.8,42.19164385,-71.74285603,NEISO,LOAD
UN.COLBURN 13.8MAT3,42.33166843,-71.11098195,NEISO,GENERATOR
UN.COSCOB  13.8CC13,41.02892241,-73.59796968,NEISO,GENERATOR
UN.COSCOB  13.8CC14,41.02888373,-73.59787643,NEISO,GENERATOR
LD.VERGENNE34.5,44.1790163,-73.24933086,NEISO,LOAD
LD.WARD_HIL13.2,42.74421518,-71.11368879,NEISO,LOAD
UN.WESTBRK 18.0WE1A,43.65680615,-70.37612588,NEISO,GENERATOR
UN.WESTBRK 18.0WE1B,43.65680615,-70.37612588,NEISO,GENERATOR
UN.PEMIGWAS34.5ALEX,43.5967473,-71.70936069,NEISO,GENERATOR
UN.NORTHFLD13.8NFD1,42.6112833,-72.46808672,NEISO,GENERATOR
UN.NORTHFLD13.8NFD2,42.6112833,-72.46808672,NEISO,GENERATOR
UN.NORTHFLD13.8NFD3,42.6112833,-72.46808672,NEISO,GENERATOR
UN.NORTHFLD13.8NFD4,42.6112833,-72.46808672,NEISO,GENERATOR
AR.NORTHFLD13.8NFD1P,42.6112833,-72.46808672,NEISO,GENERATOR
AR.NORTHFLD13.8NFD2P,42.6112833,-72.46808672,NEISO,GENERATOR
AR.NORTHFLD13.8NFD3P,42.6112833,-72.46808672,NEISO,GENERATOR
AR.NORTHFLD13.8NFD4P,42.6112833,-72.46808672,NEISO,GENERATOR
UN.PARIS   34.5GRPW,44.62788498,-71.25462103,NEISO,GENERATOR
UN.KLEEN   18.0KLEN,41.579186,-72.620555,NEISO,GENERATOR
UN.ROXBURY 34.5RCHW,44.63876211,-70.69226959,NEISO,GENERATOR
LD.MUSSEYRD34.5,43.62115464,-70.3302119,NEISO,LOAD
UN.MONTAGUE13.8CABT,42.58764178,-72.57807541,NEISO,GENERATOR
UN.MONTAGUE13.8TURN,42.58765459,-72.57806754,NEISO,GENERATOR
UN.NORWALK 27.6NOR1,41.12744304,-73.42835134,NEISO,GENERATOR
UN.NORWALK 27.6NOR2,41.12744304,-73.42835134,NEISO,GENERATOR
UN.NORWALK 27.6NOR3,41.12744304,-73.42835134,NEISO,GENERATOR
UN.WALNGFRD13.8JST1,41.455391,-72.838322,NEISO,GENERATOR
UN.WALNGFRD13.8CYT1,41.455391,-72.838322,NEISO,GENERATOR
UN.WALNGFRD13.8CYT2,41.455391,-72.838322,NEISO,GENERATOR
UN.WALNGFRD13.8CYT3,41.455391,-72.838322,NEISO,GENERATOR
UN.TUNNEL  69  WWTP,41.5553,-72.0419,NEISO,GENERATOR
LD.WILTON  13.8,41.2040781,-73.43676897,NEISO,LOAD
LD.TRUMBULL13.8,41.22440498,-73.2168306,NEISO,LOAD
LD.OXFORD  13.8,41.486956,-73.02204,NEISO,LOAD
LD.WEARE   34.5,43.05286582,-71.69132327,NEISO,LOAD
UN.ROCKY_RV13.8KIMB,41.58248284,-73.43372266,NEISO,GENERATOR
UN.NORTH_RD34.5LEMP,43.229819,-72.151606,NEISO,GENERATOR
LD.BOGGY_BK44,44.57018652,-68.45870545,NEISO,LOAD
LD.SHELBURN12.5,44.38355865,-73.23866341,NEISO,LOAD
LD.CHARLOTT12.5,44.31247355,-73.26142762,NEISO,LOAD
LD.N_FERRIS12.5,44.25331614,-73.25622413,NEISO,LOAD
LD.TRENTON 34.5,44.43457119,-68.37064619,NEISO,LOAD
UN.STETSON 34.5STET,45.483614,-67.993713,NEISO,GENERATOR
UN.E_SHORE 13.8NHP2,41.28805743,-72.90450337,NEISO,GENERATOR
UN.POTTER  13.8WAT1,42.2350469,-70.96675773,NEISO,GENERATOR
UN.POTTER  13.8WAT2,42.2350469,-70.96675773,NEISO,GENERATOR
UN.PLNFIELD13.8PLFD,41.67632795,-71.91636242,NEISO,GENERATOR
LD.TOWER_HL13.0,41.54883908,-71.47217184,NEISO,LOAD
UN.DARTMTH 13.8DAR3,41.68041991,-71.00537663,NEISO,GENERATOR
LD.STEPSTON23,41.32066868,-72.69750672,NEISO,LOAD
LD.FALMOUTH25,41.5636596,-70.6114559,NEISO,LOAD
LD.HYANIS_J24.0,41.67360476,-70.28085292,NEISO,LOAD
LD.WELFLEET23,,,NEISO,LOAD
LD.HARWICH 23,41.68809817,-70.101102,NEISO,LOAD
LD.ORLEANS 24.0,41.78032467,-69.99909491,NEISO,LOAD
LD.CANDLE  13.2,41.685822,-70.298079,NEISO,LOAD
LD.TREASURE13.8,42.41522337,-71.98416957,NEISO,LOAD
UN.GRAHAM  46  VEAZ,44.824164,-68.705372,NEISO,GENERATOR
UN.GRAHAM  46  MLFH,44.824164,-68.705372,NEISO,GENERATOR
LD.FLAX_HL 27.6,41.109603,-73.443584,NEISO,LOAD
UN.STETSON 34.5STE2,45.483614,-67.993713,NEISO,GENERATOR
UN.PARTRIDG23  BRKW,42.48742786,-73.21660492,NEISO,GENERATOR
UN.BERLN_NH13.8BURG,44.463014,-71.17977,NEISO,GENERATOR
LD.ROOD_AVE23,41.82886551,-72.66886521,NEISO,LOAD
UN.CONGRESS13.8BPFC,41.1830259,-73.18913605,NEISO,GENERATOR
LD.LYNN    13.8,42.45472568,-70.95153694,NEISO,LOAD
LD.STOWE   34.5,44.45910944,-72.69818829,NEISO,LOAD
LD.W_AMESBY23,42.770493,-70.901205,NEISO,LOAD
LD.W_AMESBY13.2,42.770493,-70.901205,NEISO,LOAD
UN.DEVON   13.2DV16,41.20920811,-73.10730318,NEISO,GENERATOR
UN.DEVON   13.2DV17,41.20920811,-73.10730318,NEISO,GENERATOR
UN.DEVON   13.2DV18,41.20920811,-73.10730318,NEISO,GENERATOR
LD.EAST_AVE34.5,44.48065778,-73.18860737,NEISO,LOAD
LD.WATERFRD23,41.37663435,-72.1893398,NEISO,LOAD
LD.MYSTIC  13.8,42.3917,-71.0667,NEISO,LOAD
LD.DEXTER  13.8,41.936346,-72.614791,NEISO,LOAD
ARTHUR_KILL_2,40.574422,-74.197426,NYISO,GENERATOR
ARTHUR_KILL_3,40.574422,-74.197426,NYISO,GENERATOR
ALLEGHENY___COGEN,42.5083,-78.0661,NYISO,GENERATOR
BROOKLYN_NAVY_YARD,40.6833,-73.9667,NYISO,GENERATOR
ASTORIA___3,40.78212445,-73.90299029,NYISO,GENERATOR
ASTORIA___4,40.78056465,-73.90299029,NYISO,GENERATOR
ASTORIA___5,40.7869,-73.9122,NYISO,GENERATOR
POLETTI____,40.787759,-73.909275,NYISO,GENERATOR
ARTHUR KILL_GT_1,40.574422,-74.197426,NYISO,GENERATOR
WADING RIVER_IC_1,40.9575,-72.8781,NYISO,GENERATOR
ASTORIA_GT_1,40.7869,-73.9122,NYISO,GENERATOR
EAST RIVER___7,40.7281,-73.9742,NYISO,GENERATOR
BOWLINE___1,41.2053897,-73.96899668,NYISO,GENERATOR
ADK_NYS___DAM,,,NYISO,GENERATOR
NEG_PENN_ALLEGHNY,,,NYISO,GENERATOR
INDIAN POINT___2,41.28603173,-73.89821152,NYISO,GENERATOR
INDIAN POINT___3,41.28603173,-73.89821152,NYISO,GENERATOR
RUSSELL___2,43.2688,-77.631325,NYISO,GENERATOR
RAVENSWOOD___1,40.759532,-73.945667,NYISO,GENERATOR
RAVENSWOOD___2,40.759532,-73.945667,NYISO,GENERATOR
RAVENSWOOD___3,40.759532,-73.945667,NYISO,GENERATOR
ASTORIA GT2____,40.7869,-73.9122,NYISO,GENERATOR
WATERSIDE___6 8 9,40.7472,-73.9705,NYISO,GENERATOR
HUDSON AVE_GT_4,40.703776,-73.981745,NYISO,GENERATOR
KIAC_JFK_AIRPORT,40.65964917,-73.79452146,NYISO,GENERATOR
74TH ST____,40.768,-73.9515,NYISO,GENERATOR
KINTIGH____,43.3561,-78.6039,NYISO,GENERATOR
BARRETT___1,40.629187,-73.628753,NYISO,GENERATOR
BARRETT___2,40.629187,-73.628753,NYISO,GENERATOR
WADING RIVER_IC_2,40.9575,-72.8781,NYISO,GENERATOR
FAR ROCKAWAY___4,40.6111,-73.7611,NYISO,GENERATOR
RUSSELL___3,43.2688,-77.631325,NYISO,GENERATOR
GLENWOOD___4,40.83244335,-73.64511702,NYISO,GENERATOR
NORTHPORT___1,40.9231,-73.3417,NYISO,GENERATOR
NORTHPORT___2,40.9231,-73.3417,NYISO,GENERATOR
NORTHPORT___3,40.9231,-73.3417,NYISO,GENERATOR
PORT_JEFF_3,40.954758,-73.043988,NYISO,GENERATOR
RUSSELL___4,43.2688,-77.631325,NYISO,GENERATOR
HUNTLEY___63,42.97,-78.93,NYISO,GENERATOR
HUNTLEY___64,42.97,-78.93,NYISO,GENERATOR
HUNTLEY___65,42.97,-78.93,NYISO,GENERATOR
HUNTLEY___66,42.97,-78.93,NYISO,GENERATOR
HUNTLEY___67,42.97,-78.93,NYISO,GENERATOR
HUNTLEY___68,42.97,-78.93,NYISO,GENERATOR
DUNKIRK___1,42.476543,-79.333734,NYISO,GENERATOR
DUNKIRK___2,42.476543,-79.333734,NYISO,GENERATOR
DUNKIRK___3,42.476543,-79.333734,NYISO,GENERATOR
DUNKIRK___4,42.476543,-79.333734,NYISO,GENERATOR
INDECK___ILION,43.0167,-75.0083,NYISO,GENERATOR
LYONS_FALL_HYD,43.625347,-75.367119,NYISO,GENERATOR
ALBANY___1,42.704194,-73.850862,NYISO,GENERATOR
ALBANY___2,42.704194,-73.850862,NYISO,GENERATOR
ALBANY___3,42.704194,-73.850862,NYISO,GENERATOR
ALBANY___4,42.704194,-73.850862,NYISO,GENERATOR
NINE_MILE_1,43.513262,-76.407172,NYISO,GENERATOR
GOUDEY___7,42.11169833,-75.97613629,NYISO,GENERATOR
GOUDEY___8,42.11169833,-75.97613629,NYISO,GENERATOR
GREENIDGE___3,42.6794289,-76.95099515,NYISO,GENERATOR
GREENIDGE___4,42.67945265,-76.95098439,NYISO,GENERATOR
MILLIKEN___1,42.60248722,-76.63283863,NYISO,GENERATOR
MILLIKEN___2,42.60248687,-76.63281816,NYISO,GENERATOR
DANSKAMMER___1,41.5702048,-73.9687262,NYISO,GENERATOR
ROSETON___1,41.57475,-73.97874,NYISO,GENERATOR
ROSETON___2,41.57475,-73.97874,NYISO,GENERATOR
DANSKAMMER___2,41.5702048,-73.9687262,NYISO,GENERATOR
DANSKAMMER___3,41.5702048,-73.9687262,NYISO,GENERATOR
DANSKAMMER___4,41.5702048,-73.9687262,NYISO,GENERATOR
DANSKAMMER___DIESEL,41.5702048,-73.9687262,NYISO,GENERATOR
LOVETT___5,41.2531224,-73.95970261,NYISO,GENERATOR
HOMER_CITY_3,40.51165483,-79.19485091,NYISO,GENERATOR
BOWLINE___2,41.2044,-73.9689,NYISO,GENERATOR
FITZPATRICK____,43.51975235,-76.40952917,NYISO,GENERATOR
GILBOA____,42.43984267,-74.44818005,NYISO,GENERATOR
ST LAWRENCE____,45.004101,-74.804534,NYISO,GENERATOR
WADING RIVER_IC_3,40.9575,-72.8781,NYISO,GENERATOR
RUSSELL___1,43.2688,-77.631325,NYISO,GENERATOR
GINNA____,43.270581,-77.311032,NYISO,GENERATOR
STATION 5_MISC_HYD,43.1803,-77.615,NYISO,GENERATOR
OSWEGO___5,43.45865317,-76.53166439,NYISO,GENERATOR
GRAHMSVILLE___HY,41.85933894,-74.50659157,NYISO,GENERATOR
NEVERSINK___HYD,41.81377427,-74.50749755,NYISO,GENERATOR
STURGEON_POOL_HYD,41.84783909,-74.04676229,NYISO,GENERATOR
DASHVILLE___HYD,41.826666,-74.129784,NYISO,GENERATOR
COXSACKIE___GT,42.392735,-73.817281,NYISO,GENERATOR
SOUTH CAIRO___GT,42.285691,-73.971255,NYISO,GENERATOR
OSWEGO___6,43.45866098,-76.53167379,NYISO,GENERATOR
GLENWOOD___5,40.83244335,-73.64511702,NYISO,GENERATOR
PORT_JEFF_4,40.954758,-73.043988,NYISO,GENERATOR
GOWANUS_GT 2_GRP,40.66204398,-74.00235586,NYISO,GENERATOR
GOWANUS_GT 3_GRP,40.66204398,-74.00235586,NYISO,GENERATOR
BEEBEE_GT_13,43.1617,-77.6186,NYISO,GENERATOR
HUDAV+59+74_TH_GRP,40.741675,-73.986035,NYISO,GENERATOR
HICKLING___1,42.12365071,-76.98326133,NYISO,GENERATOR
HICKLING___2,42.12365071,-76.98327153,NYISO,GENERATOR
HOMER_CITY_1,40.51165483,-79.19485091,NYISO,GENERATOR
HOMER_CITY_2,40.51165483,-79.19485091,NYISO,GENERATOR
JENNISON___1,42.27551879,-75.47843095,NYISO,GENERATOR
JENNISON___2,42.27557993,-75.4782572,NYISO,GENERATOR
NEG CENTRAL___SENECA,42.86745638,-78.8213163,NYISO,GENERATOR
NEG NORTH___PLATTSBURG,44.72359782,-73.46394894,NYISO,GENERATOR
MILLIKEN___DIESEL,42.60247933,-76.63284911,NYISO,GENERATOR
LOVETT___3,41.2531559,-73.95961619,NYISO,GENERATOR
NM MOHAWK___NUG,,,NYISO,GENERATOR
NM CENTRAL___NUG,42.461554,-76.658478,NYISO,GENERATOR
IP CORINTH___2,43.28786718,-73.87466271,NYISO,GENERATOR
HILLBURN___GT,41.12463448,-74.16797138,NYISO,GENERATOR
SHOEMAKER___GT,41.4278,-74.4186,NYISO,GENERATOR
MONGAUP___HYD,41.513696,-74.759286,NYISO,GENERATOR
LOVETT___4,41.25318643,-73.95965853,NYISO,GENERATOR
NM CAPITAL___NUG,43.306943,-73.628336,NYISO,GENERATOR
HQ_GEN_CEDARS,45.307787,-73.889419,NYISO,GENERATOR
NEG CAPITAL___MECHNVIL,42.902855,-73.687347,NYISO,GENERATOR
RANKINE____,,,NYISO,GENERATOR
HEMPSTEAD____,40.737623,-73.588425,NYISO,GENERATOR
BEEBEE___12,43.977502,-75.906465,NYISO,GENERATOR
NORTHPORT___4,40.9231,-73.3417,NYISO,GENERATOR
HQ_GEN_WHEEL,45.307787,-73.889419,NYISO,GENERATOR
ROCHESTER_9_IC,43.05377934,-77.67281727,NYISO,GENERATOR
PEEKSKILL____,41.290096,-73.92041,NYISO,GENERATOR
ASHOKAN____,41.889,-74.2625,NYISO,GENERATOR
KENSICO____,41.2,-73.8,NYISO,GENERATOR
LIPA_MISC_IPP,40.881902,-73.291267,NYISO,GENERATOR
HUDSON AVE_GT_5,40.703776,-73.981745,NYISO,GENERATOR
INDIAN POINT_GT_2,41.28603173,-73.89821152,NYISO,GENERATOR
EAST RIVER___6,40.7281,-73.9742,NYISO,GENERATOR
ASTORIA 5-9____,40.7869,-73.9122,NYISO,GENERATOR
ASTRIA 10-13____,40.7864,-73.9133,NYISO,GENERATOR
RAVNSWD 8-11____,40.7667,-73.9,NYISO,GENERATOR
ATHENS_STG_1,42.27095056,-73.85018799,NYISO,GENERATOR
ATHENS_STG_2,42.27095056,-73.85018799,NYISO,GENERATOR
ATHENS_STG_3,42.27095056,-73.85018799,NYISO,GENERATOR
INDIAN PT_GT_GRP,41.28603173,-73.89821152,NYISO,GENERATOR
GLENWOOD_IC_2_G1,40.83244335,-73.64511702,NYISO,GENERATOR
GLENWOOD_IC_3_G1,40.83244335,-73.64511702,NYISO,GENERATOR
HOLTSVILLE_IC_1,40.812262,-73.03104,NYISO,GENERATOR
HOLTSVILLE_IC_2,40.812262,-73.03104,NYISO,GENERATOR
HOLTSVILLE_IC_3,40.812262,-73.03104,NYISO,GENERATOR
HOLTSVILLE_IC_4,40.812262,-73.03104,NYISO,GENERATOR
HOLTSVILLE_IC_5,40.812262,-73.03104,NYISO,GENERATOR
HOLTSVILLE_IC_6,40.812262,-73.03104,NYISO,GENERATOR
HOLTSVILLE_IC_7,40.812262,-73.03104,NYISO,GENERATOR
HOLTSVILLE_IC_8,40.812262,-73.03104,NYISO,GENERATOR
HOLTSVILLE_IC_9,40.812262,-73.03104,NYISO,GENERATOR
HOLTSVILLE_IC_10,40.812262,-73.03104,NYISO,GENERATOR
BARRETT_IC_9,40.629187,-73.628753,NYISO,GENERATOR
BARRETT_IC_10,40.629187,-73.628753,NYISO,GENERATOR
BARRETT_IC_11,40.629187,-73.628753,NYISO,GENERATOR
BARRETT_IC_12,40.629187,-73.628753,NYISO,GENERATOR
BARRETT_IC_1,40.629187,-73.628753,NYISO,GENERATOR
BARRETT_IC_2,40.629187,-73.628753,NYISO,GENERATOR
BARRETT_IC_3,40.629187,-73.628753,NYISO,GENERATOR
BARRETT_IC_4,40.629187,-73.628753,NYISO,GENERATOR
BARRETT_IC_5,40.629187,-73.628753,NYISO,GENERATOR
BARRETT_IC_6,40.629187,-73.628753,NYISO,GENERATOR
BARRETT_IC_7,40.629187,-73.628753,NYISO,GENERATOR
BARRETT_IC_8,40.629187,-73.628753,NYISO,GENERATOR
GLENWOOD_IC_1_G5,40.83244335,-73.64511702,NYISO,GENERATOR
PORT_JEFF_IC,40.954758,-73.043988,NYISO,GENERATOR
WEST BABYLON___IC,40.6953,-73.3497,NYISO,GENERATOR
SHOREHAM_IC_1,40.93218389,-72.78210196,NYISO,GENERATOR
SHOREHAM_IC_2,40.93211745,-72.78210187,NYISO,GENERATOR
EAST HAMPTON___GT,40.9583,-72.2306,NYISO,GENERATOR
NORTHPORT___IC,40.9231,-73.3417,NYISO,GENERATOR
SOUTHOLD___IC,41.130038,-72.341596,NYISO,GENERATOR
SOUTH HAMPTN___IC,40.89260979,-72.39770242,NYISO,GENERATOR
MONTAUK___DIESEL,41.045079,-71.949228,NYISO,GENERATOR
EAST_HAMPTON___DIESEL,41.00016,-72.16376,NYISO,GENERATOR
NARROWS_GT1_GRP,40.6486,-74.0209,NYISO,GENERATOR
ASTORIA GT4____,40.7869,-73.9122,NYISO,GENERATOR
RAVENS GT4-7____,40.7667,-73.9,NYISO,GENERATOR
RAVENSWOOD_GT_1,40.759532,-73.945667,NYISO,GENERATOR
RAVENSWD GT2____,40.7667,-73.9,NYISO,GENERATOR
ASTORIA GT3____,40.7869,-73.9122,NYISO,GENERATOR
GOWANUS_GT 1_GRP,40.66204398,-74.00235586,NYISO,GENERATOR
RAVENSWD GT3____,40.7667,-73.9,NYISO,GENERATOR
SISSONVILLE____,44.669777,-74.981308,NYISO,GENERATOR
WARRENSBURG____,43.498037,-73.768014,NYISO,GENERATOR
NARROWS_GT2_GRP,40.6486,-74.0209,NYISO,GENERATOR
JARVIS____,43.312885,-75.109195,NYISO,GENERATOR
NINE_MILE_2,43.513203,-76.407252,NYISO,GENERATOR
GOWANUS_GT 4_GRP,40.66204398,-74.00235586,NYISO,GENERATOR
CORNELL____,42.442984,-76.473062,NYISO,GENERATOR
HIGH FALLS___HY,41.82880207,-74.13192108,NYISO,GENERATOR
GILBOA___1,42.43984267,-74.44818005,NYISO,GENERATOR
GILBOA___2,42.43984267,-74.44818005,NYISO,GENERATOR
GILBOA___3,42.43984267,-74.44818005,NYISO,GENERATOR
GILBOA___4,42.43984267,-74.44818005,NYISO,GENERATOR
NIAGARA____,43.145736,-79.049146,NYISO,GENERATOR
FREEPORT_EQUS_GT1,40.657604,-73.583183,NYISO,GENERATOR
CH_MISC_IPPS,41.577471,-73.996337,NYISO,GENERATOR
FULTON COGEN____,43.011193,-74.471558,NYISO,GENERATOR
NEG CENTRAL_HIGH_ACRES,43.098675,-77.44194,NYISO,GENERATOR
NEG CENTRAL___INDECK,42.65,-78.0667,NYISO,GENERATOR
LEDERLE____,41.1,-74,NYISO,GENERATOR
YORK___WARBASSE,40.5767,-73.9884,NYISO,GENERATOR
NM WEST___NUG,42.557339,-78.608344,NYISO,GENERATOR
E_FISHKILL___LBMP,41.5682021,-73.83541236,NYISO,GENERATOR
SITHE___STERLING,43.0803,-75.6003,NYISO,GENERATOR
GLEN PARK____,44.01357624,-75.99788293,NYISO,GENERATOR
BETHLEHEM___STEEL,42.81226375,-78.84827365,NYISO,GENERATOR
FORT_DRUM_COGEN,44.06126069,-75.80109891,NYISO,GENERATOR
INDECK___YERKES,42.9667,-78.9333,NYISO,GENERATOR
INDECK___OSWEGO,43.46703353,-76.48761819,NYISO,GENERATOR
LINDEN COGEN____,40.63037726,-74.21444159,NYISO,GENERATOR
BINGHAMTON___COGEN,42.1083,-75.9167,NYISO,GENERATOR
NEG WEST_LEA_LOCKPORT,43.1622,-78.7453,NYISO,GENERATOR
NEG NORTH_KES_CHATEGAY,44.926437,-74.079613,NYISO,GENERATOR
NEG NORTH_FLCN_SEA,44.7144,-73.4556,NYISO,GENERATOR
NYPA___HOLTSVILL,40.812262,-73.03104,NYISO,GENERATOR
RENSSELAER___COGEN,42.630508,-73.744774,NYISO,GENERATOR
SENECA___ENERGY,42.926755,-76.840098,NYISO,GENERATOR
ADK RESOURCE___RCVRY,,,NYISO,GENERATOR
SELKIRK___II,42.5667,-73.8556,NYISO,GENERATOR
SITHE___INDEPEND,43.495,-76.4508,NYISO,GENERATOR
SELKIRK___L,42.5667,-73.8556,NYISO,GENERATOR
INDECK___CORINTH,43.25,-73.8125,NYISO,GENERATOR
BURROWS___LYONSDAL,43.6433,-75.3374,NYISO,GENERATOR
IP___TICONDEROGA,43.83041837,-73.43228416,NYISO,GENERATOR
WATERTOWN___HYD,43.93876039,-75.8545926,NYISO,GENERATOR
DOGLEVILLE___HYD,43.100899,-74.772926,NYISO,GENERATOR
GENERAL___MILLS,42.8561,-78.8644,NYISO,GENERATOR
US___GYPSUM,,,NYISO,GENERATOR
HUDSON AVE_GT_3,40.703776,-73.981745,NYISO,GENERATOR
NEG WEST___LANCASTR,42.900616,-78.670311,NYISO,GENERATOR
GLOBAL GREEN_PORT_GT1,41.103428,-72.359245,NYISO,GENERATOR
FPL FAR_ROCK_GT2,40.610418,-73.761413,NYISO,GENERATOR
KIAC_JFK_GT1,40.65958455,-73.79448223,NYISO,GENERATOR
KIAC_JFK_GT2,40.65964973,-73.79445802,NYISO,GENERATOR
FREEPORT___CT2,40.657604,-73.583183,NYISO,GENERATOR
ONTARIO___LFGE,42.8586,-77.0872,NYISO,GENERATOR
RAVENSWOOD___4,40.759532,-73.945667,NYISO,GENERATOR
CALPINE_BP_GT1,40.7469,-73.4994,NYISO,GENERATOR
BORALEX_4TH_BRANCH,43.295624,-73.59439,NYISO,GENERATOR
BETHLEHEM___GRP,42.59505356,-73.76224187,NYISO,GENERATOR
NEWTON___FALLS_HYD,44.216235,-74.851704,NYISO,GENERATOR
NYS_BARGE___HYD,,,NYISO,GENERATOR
MID___OSWEGATCHIE_HYD,44.324501,-75.251038,NYISO,GENERATOR
LWR___OSWEGATCHIE_HYD,44.324501,-75.251038,NYISO,GENERATOR
MID___RAQUETTE_HYD,44.753876,-74.987439,NYISO,GENERATOR
PIERCEFIELD___HYD,44.237286,-74.542955,NYISO,GENERATOR
FIBERTEK___ENERGY,43.0628,-76.2094,NYISO,GENERATOR
CARTHAGE___PAPER,43.9847,-75.6047,NYISO,GENERATOR
NSINS_S._GLNS_FALLS,43.2933,-73.6353,NYISO,GENERATOR
CH_RES_NIAGARA,43.0908,-78.9644,NYISO,GENERATOR
FORT ORANGE____,42.64424098,-73.7520062,NYISO,GENERATOR
NEPA___ENERGY,42.2269,-79.8575,NYISO,GENERATOR
SITHE___MASSENA,44.91966532,-74.83510353,NYISO,GENERATOR
AMERICAN___BRASS,,,NYISO,GENERATOR
NEG NORTH___LWR_SARANAC,44.7144,-73.4556,NYISO,GENERATOR
RUSSELL___STATION,43.2688,-77.631325,NYISO,GENERATOR
NEG NORTH___ALICE_FALLS,44.505051,-73.480141,NYISO,GENERATOR
INDECK___OLEAN,42.0875,-78.4578,NYISO,GENERATOR
CH_RES_BVR_FALLS,43.8861,-75.4342,NYISO,GENERATOR
CH_RES_SYRACUSE,43.0667,-76.2167,NYISO,GENERATOR
ONONDAGA___COGEN,43.065,-76.2164,NYISO,GENERATOR
ONONDAGA_REF_OCCRA,43.021744,-76.197338,NYISO,GENERATOR
IP CORINTH___1,43.28785711,-73.87464051,NYISO,GENERATOR
PROJECT___ORANGE,43.0397,-76.1439,NYISO,GENERATOR
PLEASANTVLY___LBMP,41.739537,-73.834714,NYISO,GENERATOR
NYISO_LBMP_REFERENCE,43.206648,-75.259533,NYISO,HUB
AMERICAN_REF_FUEL,43.0839,-79.0056,NYISO,GENERATOR
ADK HUDSON___FALLS,43.295631,-73.594381,NYISO,GENERATOR
LITTLE FALLS___HYD,43.06023,-74.763434,NYISO,GENERATOR
LONG_LAKE_PHOENIX,43.231178,-76.300758,NYISO,GENERATOR
MEDINA___POWER,43.222706,-78.382473,NYISO,GENERATOR
HARZA MOOSE___RIVER,43.7846,-75.4496,NYISO,GENERATOR
SYRACUSE___POWER,43.048126,-76.14743,NYISO,GENERATOR
CRESCENT___HYD,42.825953,-73.726027,NYISO,GENERATOR
INDIAN POINT_GT_3,41.28603173,-73.89821152,NYISO,GENERATOR
VISCHER___FERRY HYD,42.439955,-74.447989,NYISO,GENERATOR
SITHE___OGDNSBRG,44.69227718,-75.49434923,NYISO,GENERATOR
PYRITES___HYD,44.51952611,-75.18652987,NYISO,GENERATOR
SITHE___BATAVIA,42.9825,-78.1572,NYISO,GENERATOR
OXBOW____,43.0483,-78.8539,NYISO,GENERATOR
BEEBEE ISLND___HYD,44.0395,-75.9146,NYISO,GENERATOR
ADK S GLENS___FALLS,43.30555,-73.639408,NYISO,GENERATOR
HOLTSVIL 1-5___GRP1,40.812262,-73.03104,NYISO,GENERATOR
HOLTSVIL6-10___GRP2,40.812262,-73.03104,NYISO,GENERATOR
BARRETT 9-12___GRP3,40.629187,-73.628753,NYISO,GENERATOR
BARRETT 1-8___GRP4,40.629187,-73.628753,NYISO,GENERATOR
WADING RIVER_1-3_GRP5,40.9575,-72.8781,NYISO,GENERATOR
GARDENVILLE___LBMP,42.851647,-78.7682,NYISO,GENERATOR
SENECA OSWGO___HYD,43.43959806,-76.51874931,NYISO,GENERATOR
N SALMON___HYD,,,NYISO,GENERATOR
S SALMON___HYD,43.5317,-75.9531,NYISO,GENERATOR
OSWEGATCHIE___HYD,44.210835,-75.058765,NYISO,GENERATOR
OAK ORCHARD___HYD,43.307757,-78.196106,NYISO,GENERATOR
BLACK RIVER___HYD,44.03037417,-75.75986701,NYISO,GENERATOR
BEAVER RIVER___HYD,43.924345,-75.375189,NYISO,GENERATOR
WEST CANADA___HYD,43.2853,-75.1481,NYISO,GENERATOR
E_CANADA_MHWK_HY,43.06,-74.7647,NYISO,GENERATOR
E_CANADA_CAP_HY,43.0189,-74.7417,NYISO,GENERATOR
NM_ST_REGIS___HYD,,,NYISO,GENERATOR
FRANKLIN_FALL_HYD,44.456592,-73.97378,NYISO,GENERATOR
NM NORTH___NUG,44.760154,-73.596679,NYISO,GENERATOR
UPPER RAQUET___HYD,44.506294,-74.753324,NYISO,GENERATOR
LOWER RAQUET___HYD,44.513165,-74.882346,NYISO,GENERATOR
UPPER HUDSON___HYD,43.297452,-73.884333,NYISO,GENERATOR
LOWER___HUDSON,42.899154,-73.599762,NYISO,GENERATOR
CARR STREET_E._SYR,43.08269431,-76.08243124,NYISO,GENERATOR
N.E._GEN_SANDY PD,41.76892532,-73.52246094,NYISO,GENERATOR
O.H._GEN_BRUCE,44.884761,-75.922858,NYISO,GENERATOR
PJM_GEN_KEYSTONE,40.65779576,-79.3381631,NYISO,GENERATOR
GOWANUS_GT1_1,40.66204398,-74.00235586,NYISO,GENERATOR
GOWANUS_GT1_2,40.66204398,-74.00235586,NYISO,GENERATOR
GOWANUS_GT1_3,40.66204398,-74.00235586,NYISO,GENERATOR
GOWANUS_GT1_4,40.66204398,-74.00235586,NYISO,GENERATOR
GOWANUS_GT1_5,40.66204398,-74.00235586,NYISO,GENERATOR
ELEC_TRO_TEK,,,NYISO,GENERATOR
ASTORIA_GT2_1,40.7864,-73.9133,NYISO,GENERATOR
ASTORIA_GT2_2,40.78732106,-73.8865183,NYISO,GENERATOR
ASTORIA_GT2_3,40.78212445,-73.90299029,NYISO,GENERATOR
ASTORIA_GT2_4,40.78056465,-73.90299029,NYISO,GENERATOR
ASTORIA_GT3_1,40.7864,-73.9133,NYISO,GENERATOR
ASTORIA_GT3_2,40.78732106,-73.8865183,NYISO,GENERATOR
ASTORIA_GT3_3,40.78212445,-73.90299029,NYISO,GENERATOR
ASTORIA_GT3_4,40.78056465,-73.90299029,NYISO,GENERATOR
ASTORIA_GT4_1,40.7864,-73.9133,NYISO,GENERATOR
ASTORIA_GT4_2,40.78732106,-73.8865183,NYISO,GENERATOR
ASTORIA_GT4_3,40.78212445,-73.90299029,NYISO,GENERATOR
ASTORIA_GT4_4,40.78056465,-73.90299029,NYISO,GENERATOR
ASTORIA_GT_5,40.7864,-73.9133,NYISO,GENERATOR
ASTORIA_GT_7,40.7864,-73.9133,NYISO,GENERATOR
ASTORIA_GT_8,40.7864,-73.9133,NYISO,GENERATOR
ASTORIA_GT_9,40.7864,-73.9133,NYISO,GENERATOR
ASTORIA_GT_10,40.7864,-73.9133,NYISO,GENERATOR
GOWANUS_GT1_6,40.66204398,-74.00235586,NYISO,GENERATOR
GOWANUS_GT1_7,40.66204398,-74.00235586,NYISO,GENERATOR
GOWANUS_GT1_8,40.66204398,-74.00235586,NYISO,GENERATOR
GOWANUS_GT2_1,40.66204398,-74.00235586,NYISO,GENERATOR
GOWANUS_GT2_2,40.66204398,-74.00235586,NYISO,GENERATOR
GOWANUS_GT2_3,40.66204398,-74.00235586,NYISO,GENERATOR
GOWANUS_GT2_4,40.66204398,-74.00235586,NYISO,GENERATOR
GOWANUS_GT2_5,40.66204398,-74.00235586,NYISO,GENERATOR
GOWANUS_GT2_6,40.66204398,-74.00235586,NYISO,GENERATOR
GOWANUS_GT2_7,40.66204398,-74.00235586,NYISO,GENERATOR
GOWANUS_GT2_8,40.66204398,-74.00235586,NYISO,GENERATOR
GOWANUS_GT3_1,40.66204398,-74.00235586,NYISO,GENERATOR
GOWANUS_GT3_2,40.66204398,-74.00235586,NYISO,GENERATOR
GOWANUS_GT3_3,40.66204398,-74.00235586,NYISO,GENERATOR
GOWANUS_GT3_4,40.66204398,-74.00235586,NYISO,GENERATOR
GOWANUS_GT3_5,40.66204398,-74.00235586,NYISO,GENERATOR
GOWANUS_GT3_6,40.66204398,-74.00235586,NYISO,GENERATOR
GOWANUS_GT3_7,40.66204398,-74.00235586,NYISO,GENERATOR
GOWANUS_GT3_8,40.66204398,-74.00235586,NYISO,GENERATOR
GOWANUS_GT4_1,40.66204398,-74.00235586,NYISO,GENERATOR
GOWANUS_GT4_2,40.66204398,-74.00235586,NYISO,GENERATOR
GOWANUS_GT4_3,40.66204398,-74.00235586,NYISO,GENERATOR
GOWANUS_GT4_4,40.66204398,-74.00235586,NYISO,GENERATOR
GOWANUS_GT4_5,40.66204398,-74.00235586,NYISO,GENERATOR
GOWANUS_GT4_6,40.66204398,-74.00235586,NYISO,GENERATOR
GOWANUS_GT4_7,40.66204398,-74.00235586,NYISO,GENERATOR
GOWANUS_GT4_8,40.66204398,-74.00235586,NYISO,GENERATOR
59TH STREET_GT_1,40.7711,-73.9911,NYISO,GENERATOR
INDIAN POINT_GT_1,41.28603173,-73.89821152,NYISO,GENERATOR
WESTERN_NY_WIND,42.804061,-78.836996,NYISO,GENERATOR
PGE MADISON___WINDPWR,42.89896,-75.512115,NYISO,GENERATOR
NEG CENTRAL___STATE_STREET,42.95205305,-76.57775417,NYISO,GENERATOR
WALDEN___HYDRO,41.57161022,-74.15465971,NYISO,GENERATOR
ASTORIA___2,40.78732106,-73.8865183,NYISO,GENERATOR
STONY___BROOK,40.925999,-73.140068,NYISO,GENERATOR
NYPA_KENT_____GT,40.706506,-73.968757,NYISO,GENERATOR
NYPA_POUCH1_____GT,40.618291,-74.068486,NYISO,GENERATOR
NYPA_GOWANUS_____GT5,40.66215,-74.001711,NYISO,GENERATOR
NYPA_GOWANUS_____GT6,40.66215,-74.001711,NYISO,GENERATOR
NYPA_____HELLGATE_GT1,40.798819,-73.909126,NYISO,GENERATOR
NYPA_____HELLGATE_GT2,40.798819,-73.909126,NYISO,GENERATOR
NYPA_HARLEM__RVR__GT1,40.7982,-73.912067,NYISO,GENERATOR
NYPA_HARLEM__RVR__GT2,40.7982,-73.912067,NYISO,GENERATOR
NYPA_VERNON_____GT2,40.761454,-73.943883,NYISO,GENERATOR
NYPA_VERNON_____GT3,40.761454,-73.943883,NYISO,GENERATOR
NYPA_BRENTWD_____GT,40.781345,-73.245651,NYISO,GENERATOR
PROJECT___ORANGE 2,43.0397,-76.1439,NYISO,GENERATOR
MODEL_CITY_ENERGY,43.185287,-78.98307,NYISO,GENERATOR
HUDSON_AVE_10,40.703776,-73.981745,NYISO,GENERATOR
SITHE_IND_GS1,43.495,-76.4508,NYISO,GENERATOR
SITHE_IND_GS2,43.495,-76.4508,NYISO,GENERATOR
SITHE_IND_GS3,43.495,-76.4508,NYISO,GENERATOR
SITHE_IND_GS4,43.495,-76.4508,NYISO,GENERATOR
PROJECT___ORANGE 1,43.0397,-76.1439,NYISO,GENERATOR
OCC_CHEM___DRP,,,NYISO,GENERATOR
OLIN_CORP_DRP,43.081233,-79.024386,NYISO,GENERATOR
NM_FRONTIER___DRP,,,NYISO,GENERATOR
CRUCIBLE_METL_DRP,43.076581,-76.217013,NYISO,GENERATOR
NM_CENTRAL___DRP,42.461554,-76.658478,NYISO,GENERATOR
BLUE_CIRC_CHEM_DRP,,,NYISO,GENERATOR
GE_PLASTICS___DRP,,,NYISO,GENERATOR
G.F.CEMENT___DRP,,,NYISO,GENERATOR
MG INDUSTRY___DRP,,,NYISO,GENERATOR
REVERE_CPPR_DRP,,,NYISO,GENERATOR
MOHAWK_PAPER___DRP,,,NYISO,GENERATOR
ALCOA_RYNLDS___DRP,44.97450786,-74.87461279,NYISO,GENERATOR
BOC_GAS_DRP,,,NYISO,GENERATOR
AIR_PRODUCTS___DRP,,,NYISO,GENERATOR
BROOKHAVEN___DRP,40.82503186,-72.91817229,NYISO,GENERATOR
CH_MIDHUDSON___DRP,41.577471,-73.996337,NYISO,GENERATOR
CE_MILLWOOD___DRP,41.19274902,-73.80055627,NYISO,GENERATOR
CE_DUNWOOD___DRP,40.940368,-73.857166,NYISO,GENERATOR
CE_NYC_DRP,,,NYISO,GENERATOR
RCPI_TRUST___DRP,,,NYISO,GENERATOR
NUCOR_STEEL___DRP,,,NYISO,GENERATOR
NEG MILLWOOD___DRP,41.19274902,-73.80055627,NYISO,GENERATOR
NEG CENTRAL___DRP,,,NYISO,GENERATOR
CALSPAN___DRP,,,NYISO,GENERATOR
CE_NYC2_DRP,,,NYISO,GENERATOR
FENNER___WINDPWR,42.95279442,-75.7647773,NYISO,GENERATOR
OUTOKUMPU-AB___DRP,,,NYISO,GENERATOR
NEG___GEN_MONROE,42.9903,-77.8011,NYISO,GENERATOR
NM_CAPITAL___DRP,43.267758,-73.963207,NYISO,GENERATOR
CALPINE BETH_PAGE_GT4,40.7469,-73.4994,NYISO,GENERATOR
KEDC PORT_JEFF_GT2,40.954758,-73.043988,NYISO,GENERATOR
KEDC PORT_JEFF_GT3,40.954758,-73.043988,NYISO,GENERATOR
FPL FAR_ROCK_GT1,40.610418,-73.761413,NYISO,GENERATOR
PPL_SHRM_GT3,40.962132,-72.821324,NYISO,GENERATOR
PPL_SHRM_GT4,40.962132,-72.821324,NYISO,GENERATOR
PPL PILGRIM_ST_GT1,40.83975405,-73.19095034,NYISO,GENERATOR
PPL PILGRIM_ST_GT2,40.8397459,-73.19097829,NYISO,GENERATOR
KEDC_GLWD_GT4,40.8283,-73.6494,NYISO,GENERATOR
KEDC_GLWD_GT5,40.8283,-73.6494,NYISO,GENERATOR
KEDC_GLWD_GRP,,,NYISO,GENERATOR
CSC___481_PGEN,,,NYISO,N/A
ASTORIA_GT_11,40.7864,-73.9133,NYISO,GENERATOR
ASTORIA_GT_12,40.7864,-73.9133,NYISO,GENERATOR
ASTORIA_GT_13,40.7864,-73.9133,NYISO,GENERATOR
NARROWS_GT1_1,40.6486,-74.0209,NYISO,GENERATOR
NARROWS_GT1_2,40.6486,-74.0209,NYISO,GENERATOR
NARROWS_GT1_3,40.6486,-74.0209,NYISO,GENERATOR
NARROWS_GT1_4,40.6486,-74.0209,NYISO,GENERATOR
NARROWS_GT1_5,40.6486,-74.0209,NYISO,GENERATOR
NARROWS_GT1_6,40.6486,-74.0209,NYISO,GENERATOR
NARROWS_GT1_7,40.6486,-74.0209,NYISO,GENERATOR
NARROWS_GT1_8,40.6486,-74.0209,NYISO,GENERATOR
NARROWS_GT2_1,40.6486,-74.0209,NYISO,GENERATOR
NARROWS_GT2_2,40.6486,-74.0209,NYISO,GENERATOR
NARROWS_GT2_3,40.6486,-74.0209,NYISO,GENERATOR
NARROWS_GT2_4,40.6486,-74.0209,NYISO,GENERATOR
NARROWS_GT2_5,40.6486,-74.0209,NYISO,GENERATOR
NARROWS_GT2_6,40.6486,-74.0209,NYISO,GENERATOR
NARROWS_GT2_7,40.6486,-74.0209,NYISO,GENERATOR
NARROWS_GT2_8,40.6486,-74.0209,NYISO,GENERATOR
RAVENSWOOD_GT2_1,40.759532,-73.945667,NYISO,GENERATOR
RAVENSWOOD_GT2_2,40.759532,-73.945667,NYISO,GENERATOR
RAVENSWOOD_GT2_3,40.759532,-73.945667,NYISO,GENERATOR
RAVENSWOOD_GT2_4,40.759532,-73.945667,NYISO,GENERATOR
RAVENSWOOD_GT3_1,40.759532,-73.945667,NYISO,GENERATOR
RAVENSWOOD_GT3_2,40.759532,-73.945667,NYISO,GENERATOR
RAVENSWOOD_GT3_3,40.759532,-73.945667,NYISO,GENERATOR
RAVENSWOOD_GT3_4,40.759532,-73.945667,NYISO,GENERATOR
RAVENSWOOD_GT_4,40.759532,-73.945667,NYISO,GENERATOR
RAVENSWOOD_GT_6,40.759532,-73.945667,NYISO,GENERATOR
RAVENSWOOD_GT_5,40.759532,-73.945667,NYISO,GENERATOR
RAVENSWOOD_GT_7,40.759532,-73.945667,NYISO,GENERATOR
RAVENSWOOD_GT_8  TEMP GRP(8-11),40.759532,-73.945667,NYISO,GENERATOR
RAVENSWOOD_GT_9,40.759532,-73.945667,NYISO,GENERATOR
RAVENSWOOD_GT_10,40.759532,-73.945667,NYISO,GENERATOR
RAVENSWOOD_GT_11,40.759532,-73.945667,NYISO,GENERATOR
74TH STREET_GT_1,40.768,-73.9515,NYISO,GENERATOR
74TH STREET_GT_2,40.768,-73.9515,NYISO,GENERATOR
UN.E_FAIRFX34.5GMTW,44.63655304,-72.9312495,NEISO,GENERATOR
UN.WOODSTCK34.5SPMT,44.38952425,-70.62932458,NEISO,GENERATOR
UN.JAY_VT  46  KCW,44.803879,-72.447308,NEISO,GENERATOR
LD.NEWFANE 46,42.96818749,-72.65228171,NEISO,LOAD
LD.LIMEKILN34.5,44.48811578,-73.16968286,NEISO,LOAD
LD.LYNDONVL34.5,44.55727134,-71.8396945,NEISO,LOAD
UN.HUCKN_HL34.5GROW,43.7746323,-71.65678718,NEISO,GENERATOR
UN.BINGHAM 34.5BNGW,45.16033148,-69.38903753,NEISO,GENERATOR
LD.ATHENSME12.5,44.94464795,-69.65932971,NEISO,LOAD
LD.MADISON 34.5,44.78893532,-69.88766558,NEISO,LOAD
LD.HOTEL_RD12,44.06819309,-70.26721659,NEISO,LOAD
UN.ROLLINS 34.5ROLL,,,NEISO,GENERATOR
LD.SOMERVIL13.8,42.38735364,-71.1043904,NEISO,LOAD
UN.LAUREL  13.8MI13,41.554518,-72.578165,NEISO,GENERATOR
UN.LAUREL  13.8MI14,41.554518,-72.578165,NEISO,GENERATOR
UN.LAUREL  13.8MI15,41.554518,-72.578165,NEISO,GENERATOR
LD.TAFTS_CR12.5,44.449651,-73.111181,NEISO,LOAD
LD.VERNONRD46,42.864653,-72.547726,NEISO,LOAD
LD.ROXBURY 34.5,44.63876211,-70.69226959,NEISO,LOAD
LD.DUDLEY  13.8,41.53603179,-72.10238527,NEISO,LOAD
UN.HARRNGTN13.2HARS,,,NEISO,GENERATOR
UN.LUDDN_LN34.5SADW,,,NEISO,GENERATOR
UN.PASADMKG34.5PASW,45.129688,-68.351511,NEISO,GENERATOR
UN.W_KNGSTN34.5BIW,,,NEISO,GENERATOR
UN.LUDDN_LN34.5CANW,,,NEISO,GENERATOR
LD.VT_YK   115,42.780124,-72.515929,NEISO,LOAD
LD.LEEDS_ME34.5,44.30472863,-70.12021539,NEISO,LOAD
LD.UNION_AV115,41.30152974,-72.92419287,NEISO,LOAD
LD.WOONSCKT13.8,41.84243051,-71.42120339,NEISO,LOAD
LD.SHERWOOD13.8,41.12159795,-73.31605785,NEISO,LOAD
LD.DEXTR_RI69,41.625065,-71.240409,NEISO,LOAD
LD.PLSNT_HL12.5,43.59834702,-70.29403427,NEISO,LOAD
LD.GOOSEFAR12,,,NEISO,LOAD
LD.MONMOUTH12,44.18875783,-69.99285339,NEISO,LOAD
LD.MONMOUTH34.5,44.18875304,-69.99286689,NEISO,LOAD
LD.PALMER  23,42.14511609,-72.30288182,NEISO,LOAD
LD.BELLWSFL69,43.13257724,-72.4418898,NEISO,LOAD
LD.THORNTON34.5,,,NEISO,LOAD
UN.E_SHORE 13.8NHP3,41.28805743,-72.90450337,NEISO,GENERATOR
UN.E_SHORE 13.8NHP4,41.28805743,-72.90450337,NEISO,GENERATOR
UN.RIDGEWOD13.8RIDG,41.80137371,-71.53882646,NEISO,GENERATOR
LD.BROOK_ST23,41.96568146,-70.76681587,NEISO,LOAD
LD.TUNK    34.5,44.54415706,-68.10871133,NEISO,LOAD
LD.VALLY_LN34.5,,,NEISO,LOAD
LD.JAY_VT  46,44.803879,-72.447308,NEISO,LOAD
UN.EDGAR   18.0ED1A,42.24054749,-70.96491639,NEISO,GENERATOR
UN.EDGAR   18.0ED1B,42.24054749,-70.96491639,NEISO,GENERATOR
UN.GRAHAM  18.0MS1A,44.824164,-68.705372,NEISO,GENERATOR
UN.GRAHAM  18.0MS1B,44.824164,-68.705372,NEISO,GENERATOR
LD.CROWLEYS12.5,44.05949475,-70.15501642,NEISO,LOAD
UN.BUCKSPRT13.8BKG5,44.57472034,-68.80601496,NEISO,GENERATOR
UN.BULL_HL 34.5BLHW,44.72244469,-68.16366264,NEISO,GENERATOR
LD.UNCASVIL27.6,41.42899946,-72.11605391,NEISO,LOAD
LD.BIRD_RD 13.8,,,NEISO,LOAD
LD.N_CANAL 34.5,42.19753998,-72.58941677,NEISO,LOAD
LD.N_CANAL 13.8,42.19755588,-72.5894275,NEISO,LOAD
LD.HOLLISTN13.8,,,NEISO,LOAD
LD.SHUNPIKE13.2,,,NEISO,LOAD
UN.DEXTER  13.8DX1A,41.936346,-72.614791,NEISO,GENERATOR
UN.DEXTER  13.8DX1B,41.936346,-72.614791,NEISO,GENERATOR
LD.MOSHER_T115,44.961103,-72.39898225,NEISO,LOAD
LD.MEMORIAL13.8,42.18094222,-72.57732697,NEISO,LOAD
LD.MICHL_AV13.2,,,NEISO,LOAD
LD.BELLWSFL46,43.13258453,-72.44189097,NEISO,LOAD
UN.BERLN_NH34.5JERW,44.463035,-71.179716,NEISO,GENERATOR
LD.TIMBER  34.5,42.94983158,-70.86871667,NEISO,LOAD
LD.FITCH   27.6,,,NEISO,LOAD
LD.N_AUGSTA34.5,44.3635859,-69.79759396,NEISO,LOAD
LD.SONO    13.8,,,NEISO,LOAD
LD.SAXONVIL13.8,42.311664,-71.387857,NEISO,LOAD
LD.KEENE_RD46,45.39742822,-68.52609065,NEISO,LOAD
LD.TASKERFM34.5,,,NEISO,LOAD
LD.STURTVNT12.5,44.65499805,-70.12760704,NEISO,LOAD
LD.COSCOB  27.6,41.02894815,-73.59796211,NEISO,LOAD
LD.COSCOB  13.2,41.02893243,-73.59796211,NEISO,LOAD
LD.MERIMACK115,43.16273353,-71.5074217,NEISO,LOAD
LD.W_HAMDEN69,,,NEISO,LOAD
LD.W_HAMDEN13.2,,,NEISO,LOAD
UN.LITTLRST13.2WRNS,42.17476124,-72.12117312,NEISO,GENERATOR
LD.MYSTC_NU13.8,41.36631455,-71.95932484,NEISO,LOAD
LD.COOPERML12.5,,,NEISO,LOAD
LD.HILND_PK13.8,,,NEISO,LOAD
LD.BIDDEFRD12.5,43.4968,-70.4567,NEISO,LOAD
LD.BRANCH  12.5,,,NEISO,LOAD
LD.BUCKSPRT34.5,44.57472034,-68.80601496,NEISO,LOAD
LD.CHALLENG12.5,44.06927232,-70.18653574,NEISO,LOAD
LD.LEWSTN_L12.5,44.08686976,-70.21188254,NEISO,LOAD
LD.MOSHERS 12.5,43.68434954,-70.39953531,NEISO,LOAD
LD.NORWAY  12.5,44.20730275,-70.52811648,NEISO,LOAD
LD.ELM_ST  12.5,43.78675025,-70.19903929,NEISO,LOAD
LD.BILERCA 13.2T5 LD,42.574619,-71.274734,NEISO,LOAD
LD.GEORGIA 34.5,44.71479671,-73.15536163,NEISO,LOAD
LD.SEWAL_ST12.5,43.65446299,-70.29247322,NEISO,LOAD
LD.MILL_PD 12.5,,,NEISO,LOAD
LD.E_BEVRLY23  T1 LD,42.558426,-70.880058,NEISO,LOAD
LD.PRID_CRN12.5,43.89801193,-70.22752703,NEISO,LOAD
LD.CENTECH 13.8,,,NEISO,LOAD
LD.2121A_T 34.5,,,NEISO,LOAD
LD.STICKNEY34.5,,,NEISO,LOAD
LD.UNION   34.5,44.22047171,-69.27477132,NEISO,LOAD
LD.EMBDEN  12.5,,,NEISO,LOAD
LD.WILMATC 4.8 1X3 LD,41.71301609,-72.22897884,NEISO,LOAD
LD.WILMATC 4.8 2X3 LD,41.71301209,-72.22897884,NEISO,LOAD
LD.BILERCA 13.2T6 LD,42.574619,-71.274734,NEISO,LOAD
LD.E_BEVRLY23  T2 LD,42.558426,-70.880058,NEISO,LOAD
LD.SPRNG_ST12.5,43.65162078,-70.3602472,NEISO,LOAD
UN.OAKFIELD34.5OAKW,46.050638,-68.051977,NEISO,GENERATOR
LD.CHASE_HL12.5,,,NEISO,LOAD
LD.POOTATCK13.8,,,NEISO,LOAD
UN.BUCKSPRT13.8BKG3,44.57472034,-68.80601496,NEISO,GENERATOR
LD.WALLACE 13.8,,,NEISO,LOAD
LD.N_ATTLEB69,41.98912584,-71.29643654,NEISO,LOAD
LD.ENFIELD 23,41.97348383,-72.54845674,NEISO,LOAD
LD.MEADOWST69,,,NEISO,LOAD
LD.BRIDGE_S4.16,42.904715,-71.424034,NEISO,LOAD
LD.TILLSON 13.8,,,NEISO,LOAD
UN.COMERFRD13.8COM1,44.32110592,-72.00335467,NEISO,GENERATOR
UN.COMERFRD13.8COM2,44.32109057,-72.00337613,NEISO,GENERATOR
UN.COMERFRD13.8COM3,44.32110592,-72.00339759,NEISO,GENERATOR
UN.COMERFRD13.8COM4,44.32112127,-72.00337613,NEISO,GENERATOR
UN.MOORE   13.8MOR1,44.32915762,-71.88466404,NEISO,GENERATOR
UN.MOORE   13.8MOR2,44.3291653,-71.88465868,NEISO,GENERATOR
UN.MOORE   13.8MOR3,44.32916146,-71.88464902,NEISO,GENERATOR
UN.MOORE   13.8MOR4,44.32915379,-71.88465841,NEISO,GENERATOR
LD.N_LONDON12.5,,,NEISO,LOAD
LD.HARRISON13.8,,,NEISO,LOAD
UN.BUCKSPRT18.0BKSP,44.57472349,-68.80600105,NEISO,GENERATOR
LD.NORWALK 4.8,41.12743386,-73.42836809,NEISO,LOAD
LD.FIELD_ST13.8517-533,42.25421825,-70.99221991,NEISO,LOAD
LD.READ_ST 23,41.91432601,-71.34212695,NEISO,LOAD
LD.EVERETT 13.8,,,NEISO,LOAD
LD.READ_ST 69,41.91432201,-71.34213768,NEISO,LOAD
UN.VALLEYNB23  FGW,41.78280034,-70.60137129,NEISO,GENERATOR
LD.KNGSTNUT34.5,,,NEISO,LOAD
UN.DRUMROCK115 WCVW,41.730311,-71.564499,NEISO,GENERATOR
LD.HATHAWAY23,,,NEISO,LOAD
LD.HANOVER 13.81690 LD,41.52665156,-72.82568418,NEISO,LOAD
UN.REVERE  23  NECO,42.40290542,-71.00740998,NEISO,GENERATOR
LD.FIELD_ST13.8517-532,42.25421825,-70.99221455,NEISO,LOAD
LD.HANOVER 13.81355 LD,41.52665557,-72.82567882,NEISO,LOAD
LD.BERLIN  23,41.56306291,-72.6626705,NEISO,LOAD
LD.MINK    23,41.79037404,-71.33051032,NEISO,LOAD
LD.VALLEY  23,41.98015015,-71.52130639,NEISO,LOAD
UN.TREASURE24.0SOLS,,,NEISO,GENERATOR
LD.ELECTRIC13.8,,,NEISO,LOAD
UN.BULL_HL 34.5HANW,,,NEISO,GENERATOR
UN.N_OXFORD13.2FRS,42.12919316,-71.99747424,NEISO,GENERATOR
UN.GR_RIDGE16  GR1A,42.90474348,-71.42404229,NEISO,GENERATOR
UN.GR_RIDGE16  GR1B,42.90472776,-71.42403157,NEISO,GENERATOR
LD.WNDSRLKS23,41.93634128,-72.61480365,NEISO,LOAD
LD.W_SALEM 23,42.505248,-70.92727257,NEISO,LOAD
LD.BLACK_RK4.8,41.66176399,-72.8057492,NEISO,LOAD
LD.BLACK_RK69,41.66174551,-72.80570416,NEISO,LOAD
LD.BLAIR_PD13.8,,,NEISO,LOAD
LD.KENTCNTY12.5,41.68339971,-71.47939478,NEISO,LOAD
ALDENE 230 KV 26KV A,40.65639689,-74.28472278,PJMISO,LOAD
ALDENE 230 KV 26KV B,40.65639689,-74.28472278,PJMISO,LOAD
ALDENE 230 KV T-10,40.65639689,-74.28472278,PJMISO,LOAD
ALDENE 230 KV T-20,40.65639689,-74.28472278,PJMISO,LOAD
ATHENIA 26 KV AB GRP,40.840648,-74.024826,PJMISO,LOAD
ATHENIA 26 KV OU GRP,40.840648,-74.024826,PJMISO,LOAD
ATHENIA 26 KV IM GRP,40.840648,-74.024826,PJMISO,LOAD
BAYONNE 138 KV 13KV,40.6559,-74.1216,PJMISO,LOAD
BAYONNE 138 KV 13KV-2,40.6559,-74.1216,PJMISO,LOAD
BELLEVIL 230 KV 26KV,40.80283187,-74.14212593,PJMISO,LOAD
BELLEVIL 230 KV 26KV-2,40.7975,-74.1365,PJMISO,LOAD
BENNETTS 230 KV 13KV,40.48561219,-74.53018494,PJMISO,LOAD
BENNETTS 230 KV 13KV-2,40.48561219,-74.53018494,PJMISO,LOAD
BERGEN 138 KV 26KV-1,40.840648,-74.024826,PJMISO,LOAD
BERGEN 138 KV 26KV-2,40.840648,-74.024826,PJMISO,LOAD
BERGEN 138 KV 26KV-3,40.840648,-74.024826,PJMISO,LOAD
BRIDGEWA 230 KV 26KV,40.56051971,-74.56453201,PJMISO,LOAD
BRIDGEWA 230 KV 26KV-2,40.56051971,-74.56453201,PJMISO,LOAD
BRIDGEWA 230 KV 13KV,40.56051971,-74.56453201,PJMISO,LOAD
BRIDGEWA 230 KV 13KV-2,40.56051971,-74.56453201,PJMISO,LOAD
CEDARGRO 230 KV 13KV-1,40.95567898,-74.22256438,PJMISO,LOAD
CEDARGRO 230 KV 13KV-2,40.95567898,-74.22256438,PJMISO,LOAD
CLIF PS 230 KV T-1,40.8657,-74.1708,PJMISO,LOAD
CLIF PS 230 KV T-2,40.8657,-74.1708,PJMISO,LOAD
DEVILSBR 138 KV T-1,40.324,-74.5397,PJMISO,LOAD
DEVILSBR 138 KV T-2,40.324,-74.5397,PJMISO,LOAD
DEYRD 138 KV 13KV,40.33601263,-74.5687502,PJMISO,LOAD
LD.NLONDNCT115,,,NEISO,LOAD
ERUTHERF 138 KV R-13KV,40.84155546,-74.10680888,PJMISO,LOAD
ERUTHERF 138 KV S-13KV,40.8436,-74.105,PJMISO,LOAD
FAIRLAWN 138 KV 26KV-1,40.90575,-74.13043,PJMISO,LOAD
FAIRLAWN 138 KV 26KV-2,40.90575,-74.13043,PJMISO,LOAD
FAIRLAWN 138 KV 26KV-3,40.90575,-74.13043,PJMISO,LOAD
FANWOOD 138 KV T-1,40.635938,-74.390013,PJMISO,LOAD
FANWOOD 138 KV T-2,40.635938,-74.390013,PJMISO,LOAD
FOUNDRY 138 KV T-1,40.7394,-74.1253,PJMISO,LOAD
FOUNDRY 138 KV T-2,40.7394,-74.1253,PJMISO,LOAD
GREENBRO230 KV T-1,40.5747,-74.4676,PJMISO,LOAD
GREENBRO 230 KV T-2,40.59722268,-74.48627191,PJMISO,LOAD
HAWTHORN 230 KV T-20,40.96628,-74.150667,PJMISO,LOAD
HILLSDAL 230 KV T-1,41.007795,-74.046339,PJMISO,LOAD
HILLSDAL 230 KV T-2,41.007795,-74.046339,PJMISO,LOAD
HINCHMAN 230 KV T-10,40.95567898,-74.22256438,PJMISO,LOAD
HINCHMAN 230 KV T-20,40.95567898,-74.22256438,PJMISO,LOAD
HOBOKEN 230 KV T-1AB,40.7581,-74.0313,PJMISO,LOAD
HOBOKEN 230 KV T-2AB,40.7581,-74.0313,PJMISO,LOAD
HOMESTEA 138 KV T-1,40.7791,-74.0292,PJMISO,LOAD
HOMESTEA 138 KV T-4,40.7791,-74.0292,PJMISO,LOAD
HOMESTEA 138 KV T-2,40.7791,-74.0292,PJMISO,LOAD
HOMESTEA 138 KV T-3,40.7791,-74.0292,PJMISO,LOAD
JACK PS 230 KV T-1,40.9065,-74.2418,PJMISO,LOAD
JACK PS 230 KV T-2,40.9065,-74.2418,PJMISO,LOAD
KILMER 230 KV T-1,40.534,-74.4208,PJMISO,LOAD
KILMER 230 KV T-2,40.534,-74.4208,PJMISO,LOAD
KILMER 230 KV T-3,40.534,-74.4208,PJMISO,LOAD
KILMER 230 KV T-4,40.534,-74.4208,PJMISO,LOAD
KINGSLAN 138 KV T-2,40.7863,-74.1165,PJMISO,LOAD
KINGSLAN 230 KV T-1,40.7863,-74.1165,PJMISO,LOAD
KULLERRD 138 KV T-1,40.8844,-74.1617,PJMISO,LOAD
KULLERRD 138 KV T-2,40.8844,-74.1617,PJMISO,LOAD
LAFA PS 138 KV T-1,40.5526,-74.3189,PJMISO,LOAD
LAFA PS 138 KV T-2,40.5526,-74.3189,PJMISO,LOAD
LD.MIDDLEST34.5,,,NEISO,LOAD
LD.MIDDLEST12.5,,,NEISO,LOAD
LD.N_KEENE 12.5,,,NEISO,LOAD
LEONIA 138 KV T-2,40.8644,-73.9919,PJMISO,LOAD
LEONIA 138 KV T-4,40.8644,-73.9919,PJMISO,LOAD
LEONIA 230 KV T-1,40.8644,-73.9919,PJMISO,LOAD
LEONIA 230 KV T-3,40.8644,-73.9919,PJMISO,LOAD
LINDEN 138 KV 26KV A,40.624101,-74.21161,PJMISO,LOAD
LINDEN 138 KV 26KV B,40.624101,-74.21161,PJMISO,LOAD
LAKENELS 230 KV T-1,40.54674371,-74.45816095,PJMISO,LOAD
LAKENELS 230 KV T-2,40.54674371,-74.45816095,PJMISO,LOAD
MEADOWRD 138 KV T-1,40.5169,-74.3729,PJMISO,LOAD
MEADOWRD 138 KV T-2,40.5169,-74.3729,PJMISO,LOAD
METUCHEN 138 KV 26KV-1,40.491418,-74.395537,PJMISO,LOAD
METUCHEN 138 KV 26KV-2,40.491418,-74.395537,PJMISO,LOAD
MINUEST 230 KV T-1,40.5931,-74.2323,PJMISO,LOAD
MINUEST 230 KV T-2,40.5931,-74.2323,PJMISO,LOAD
MARION 138 KV 13KV A,40.7493621,-74.07315224,PJMISO,LOAD
MARION 138 KV 13KV B,40.7493621,-74.07315224,PJMISO,LOAD
MARION 138 KV 26KV A,40.7493621,-74.07315224,PJMISO,LOAD
MARION 138 KV 26KV B,40.7493621,-74.07315224,PJMISO,LOAD
MARION 138 KV 26KV C,40.7493621,-74.07315224,PJMISO,LOAD
MARIONDR 138 KV T-1,40.78972,-74.25731,PJMISO,LOAD
MARIONDR 138 KV T-2,40.78972,-74.25731,PJMISO,LOAD
MAYWOOD 230 KV T-1,40.899203,-74.070607,PJMISO,LOAD
MAYWOOD 230 KV T-2,40.899203,-74.070607,PJMISO,LOAD
MAYWOOD 230 KV T-3,40.899203,-74.070607,PJMISO,LOAD
MAYWOOD 230 KV T-4,40.899203,-74.070607,PJMISO,LOAD
NEWARK 138 KV 13&26A,40.7353,-74.1722,PJMISO,N/A
NEWARK 138 KV 13&26B,40.7353,-74.1722,PJMISO,N/A
NEWARK 138 KV 13&26C,40.7353,-74.1722,PJMISO,N/A
NEWP PS 230 KV T-1,40.7343,-74.0391,PJMISO,LOAD
NEWP PS 230 KV T-2,40.7343,-74.0391,PJMISO,LOAD
NJTMEADO 230 KV EAST,40.745569,-74.102656,PJMISO,LOAD
NJTMEADO 230 KV WEST,40.745569,-74.102656,PJMISO,LOAD
NORTHAV 138 KV T-1,40.6718,-74.1766,PJMISO,LOAD
NORTHAV 138 KV T-2,40.6718,-74.1766,PJMISO,LOAD
NBERGEN 138 KV T-2,40.806,-74.015,PJMISO,LOAD
NBERGEN 230 KV T-1,40.806,-74.015,PJMISO,LOAD
PENHORN 230 KV T-1,40.7635,-74.0513,PJMISO,LOAD
PENHORN 230 KV T-2,40.7635,-74.0513,PJMISO,LOAD
PIERSOAV 230 KV T-1,40.56096062,-74.25211412,PJMISO,LOAD
PIERSOAV 230 KV T-2,40.56096062,-74.25211412,PJMISO,LOAD
PLAINSBU 138 KV T-1,40.333817,-74.599525,PJMISO,LOAD
PLAINSBU 138 KV T-2,40.333817,-74.599525,PJMISO,LOAD
PVSC 138 KV T-1,40.7102,-74.1389,PJMISO,LOAD
PVSC 138 KV T-2,40.7102,-74.1389,PJMISO,LOAD
UN.YARMOUTH6.9 CASB,43.75124754,-70.15542607,NEISO,GENERATOR
SEWAREN 26 KV 26KV,40.55705068,-74.24752217,PJMISO,LOAD
SOMERVIL230 KV T-1,40.5596,-74.6144,PJMISO,LOAD
SOMERVIL230 KV T-2,40.5596,-74.6144,PJMISO,LOAD
SPRINGRD 138 KV T-1,40.701,-74.2982,PJMISO,LOAD
SPRINGRD 138 KV T-2,40.701,-74.2982,PJMISO,LOAD
SWATERFR 26 KV T-1,40.7394,-74.0547,PJMISO,LOAD
SWATERFR 26 KV T-2,40.7394,-74.0547,PJMISO,LOAD
TURNPIKE 138 KV T-1,40.760647,-74.117096,PJMISO,LOAD
TURNPIKE 138 KV T-2,40.760647,-74.117096,PJMISO,LOAD
WCALDWEL 138 KV T-1,40.854173,-74.290458,PJMISO,LOAD
WCALDWEL 138 KV T-2,40.854173,-74.290458,PJMISO,LOAD
WCALDWEL 138 KV T-3,40.854173,-74.290458,PJMISO,LOAD
WCALDWEL 138 KV T-4,40.854173,-74.290458,PJMISO,LOAD
WORANGE 138 KV 26KV A,40.7886,-74.2554,PJMISO,LOAD
WORANGE 138 KV 26KV B,40.7886,-74.2554,PJMISO,LOAD
WORANGE 138 KV 26KV C,40.7886,-74.2554,PJMISO,LOAD
WALDWICK 230 KV T-10,40.96628,-74.150667,PJMISO,LOAD
WALDWICK 230 KV T-20,40.96628,-74.150667,PJMISO,LOAD
WARINANC 230 KV T-1,40.642,-74.2282,PJMISO,LOAD
WARINANC 230 KV T-2,40.642,-74.2282,PJMISO,LOAD
BEAVERBR 230 KV T-1,39.86122018,-75.08014617,PJMISO,LOAD
BEAVERBR 230 KV T-2,39.86122018,-75.08014617,PJMISO,LOAD
BURLINGT 138 KV 26KV-3,40.07540081,-74.87416014,PJMISO,LOAD
BUSTLETO 138 KV 13KV,40.0593,-74.8473,PJMISO,LOAD
BUSTLETO 138 KV 13KV-1,40.0593,-74.8473,PJMISO,LOAD
CAMDEN 138 KV 26KV-1,39.9175,-75.1192,PJMISO,LOAD
CAMDEN 138 KV 26KV-2,39.9175,-75.1192,PJMISO,LOAD
CAMDEN 138 KV 26KV-3,39.9175,-75.1192,PJMISO,LOAD
CAMDEN 230 KV 69KV-1,39.9175,-75.1192,PJMISO,LOAD
CAMDEN 230 KV 69KV-2,39.9175,-75.1192,PJMISO,LOAD
CINNAMIN 138 KV T-1,39.99763026,-74.96914627,PJMISO,LOAD
CINNAMIN 138 KV T-2,39.99763026,-74.96914627,PJMISO,LOAD
CLARKSVI 230 KV T-1,40.2573,-74.7494,PJMISO,LOAD
CLARKSVI 230 KV T-2,40.2573,-74.7494,PJMISO,LOAD
CROSSWIC 138 KV 13KV-1,40.1481,-74.6975,PJMISO,LOAD
CROSSWIC 138 KV 13KV-2,40.1481,-74.6975,PJMISO,LOAD
CUTHBERT 138 KV T-1,39.93367717,-75.05390919,PJMISO,LOAD
CUTHBERT 138 KV T-2,39.93367717,-75.05390919,PJMISO,LOAD
CUTHBERT 138 KV T-3,39.93367717,-75.05390919,PJMISO,LOAD
CUTHBERT 138 KV T-4,39.93367717,-75.05390919,PJMISO,LOAD
DEPTFORD 230 KV T-1,39.8562,-75.1438,PJMISO,LOAD
DEPTFORD 230 KV T-2,39.8562,-75.1438,PJMISO,LOAD
GLOUCEST 230 KV 69KV-1,39.888956,-75.098184,PJMISO,LOAD
GLOUCEST 230 KV 69KV-2,39.888956,-75.098184,PJMISO,LOAD
HOPECREE 500 KV SLP_1 NC,39.46752528,-75.53458977,PJMISO,LOAD
HOPECREE 500 KV SLP_2 NC,39.46752528,-75.53458977,PJMISO,LOAD
HOPECREE 500 KV SLP_3 NC,39.46752528,-75.53458977,PJMISO,LOAD
HOPECREE 500 KV SLP_4 NC,39.46752528,-75.53458977,PJMISO,LOAD
KUSERRD 230 KV T-1,40.244561,-74.711932,PJMISO,LOAD
KUSERRD 230 KV T-2,40.244561,-74.711932,PJMISO,LOAD
KUSERRD 230 KV T-3,40.244561,-74.711932,PJMISO,LOAD
KUSERRD 230 KV T-4,40.244561,-74.711932,PJMISO,LOAD
LAWRESUB 230 KV T-10,40.297367,-74.72908,PJMISO,LOAD
LAWRESUB 230 KV T-30,40.297367,-74.72908,PJMISO,LOAD
LAWRESUB 230 KV T-20,40.297367,-74.72908,PJMISO,LOAD
LAWRESUB 230 KV T-40,40.297367,-74.72908,PJMISO,LOAD
LEVITTOW 138 KV T-1,40.02789552,-74.88011836,PJMISO,LOAD
LEVITTOW 138 KV T-2,40.0369,-74.8898,PJMISO,LOAD
LEVITTOW 138 KV T-3,40.0369,-74.8898,PJMISO,LOAD
LEVITTOW 138 KV T-4,40.0369,-74.8898,PJMISO,LOAD
LUMBERTO 230 KV T-1,39.9528,-74.8258,PJMISO,LOAD
LUMBERTO 230 KV T-2,39.9528,-74.8258,PJMISO,LOAD
MARLTON 230 KV T-1,39.9039,-74.9396,PJMISO,LOAD
MARLTON 230 KV T-2,39.9039,-74.9396,PJMISO,LOAD
MARLTON 230 KV T-3,39.9039,-74.9396,PJMISO,LOAD
MARLTON 230 KV T-4,39.9039,-74.9396,PJMISO,LOAD
MERCER 230 KV #1 SP,40.1797,-74.7325,PJMISO,LOAD
MERCER 230 KV #2 SP,40.1797,-74.7325,PJMISO,LOAD
MTLAUREL 230 KV T-1,39.9515,-74.8912,PJMISO,LOAD
MTLAUREL 230 KV T-2,39.9515,-74.8912,PJMISO,LOAD
SAMPTON 69 KV LOAD1,39.88536089,-74.70409582,PJMISO,LOAD
THOROFAR 230 KV T-1,39.8344,-75.1973,PJMISO,LOAD
THOROFAR 230 KV T-2,39.8344,-75.1973,PJMISO,LOAD
ANGORA 13 KV 1BUS,39.943982,-75.23827,PJMISO,LOAD
ANGORA 13 KV 2BUS,39.943982,-75.23827,PJMISO,LOAD
BALA 13 KV LD1,39.9856,-75.29,PJMISO,LOAD
BALA 13 KV LD2,39.9856,-75.29,PJMISO,LOAD
BARBADOS 35 KV ABU2,40.1287,-75.4514,PJMISO,LOAD
BARBADOS 35 KV ABU8,40.1287,-75.4514,PJMISO,LOAD
BARBADOS 35 KV CBU6,40.1287,-75.4514,PJMISO,N/A
BARBADOS 35 KV CBU4,40.1287,-75.4514,PJMISO,N/A
BLUEBALL 13 KV 1TR,39.807563,-75.421339,PJMISO,LOAD
BLUEBALL 13 KV 2TR,39.807563,-75.421339,PJMISO,LOAD
BRADFORD 35 KV KBUS,39.96857339,-75.66542409,PJMISO,LOAD
BRADFORD 230 KV CTVS1,39.96857339,-75.66542409,PJMISO,LOAD
BRYNMAWR 35 KV 1BUS,39.9879,-75.3384,PJMISO,N/A
BRYNMAWR 35 KV 3BUS,39.9879,-75.3384,PJMISO,N/A
BUCKINGH 35 KV 2 TR,40.295,-75.0418,PJMISO,LOAD
BUCKINGH 35 KV 3 TR,40.295,-75.0418,PJMISO,LOAD
BUCKINGH 35 KV 4 TR,40.295,-75.0418,PJMISO,LOAD
BUCKINGH 35 KV 5 TR,40.295,-75.0418,PJMISO,LOAD
BYBERRY 13 KV 21BUS,40.127,-75.0206,PJMISO,LOAD
BYBERRY 13 KV 1BUS,40.127,-75.0206,PJMISO,LOAD
BYBERRY 13 KV 7BUS,40.127,-75.0206,PJMISO,LOAD
BYBERRY 13 KV 9BUS,40.127,-75.0206,PJMISO,LOAD
BYBERRY 35 KV KBUS,40.127,-75.0206,PJMISO,LOAD
CALLOWHI 13 KV 1BUS,39.9816,-75.1631,PJMISO,LOAD
CALLOWHI 13 KV 4BUS,39.9816,-75.1631,PJMISO,LOAD
CALLOWHI 13 KV 7BUS,39.9816,-75.1631,PJMISO,LOAD
CEDARBRO 13 KV NBU3,40.080167,-75.158068,PJMISO,LOAD
CEDARBRO 13 KV NBU1,40.08555196,-75.21948093,PJMISO,LOAD
CEDARBRO 13 KV NBU2,40.080167,-75.158068,PJMISO,LOAD
CEDARBRO 13 KV NBU4,40.080167,-75.158068,PJMISO,LOAD
CHESTER 35 KV KBUS,39.843023,-75.375983,PJMISO,N/A
CHICHEST 230 KV DBU1,39.857526,-75.451667,PJMISO,LOAD
CHICHEST 230 KV DBU2,39.857526,-75.451667,PJMISO,LOAD
CLAY PE 35 KV KBUS,39.7719,-75.8247,PJMISO,LOAD
COCHRNVL 230 KV 1TR,39.892105,-75.920738,PJMISO,LOAD
CONC PE 35 KV KBUS,39.8848,-75.5918,PJMISO,N/A
CROMBY 35 KV 1BUS,40.1514,-75.5306,PJMISO,LOAD
CROMBY 35 KV 3BUS,40.1514,-75.5306,PJMISO,LOAD
CROMBY 35 KV 4BUS,40.1514,-75.5306,PJMISO,LOAD
CROMBY 35 KV 2BUS,40.1514,-75.5306,PJMISO,LOAD
CROYDON 13 KV LD1,40.08054627,-74.89142809,PJMISO,LOAD
CROYDON 13 KV LD2,40.08054627,-74.89142809,PJMISO,LOAD
DALESVIL 230 KV 1TR,39.855893,-75.863417,PJMISO,LOAD
DALESVIL 230 KV 2TR,39.85566,-75.863226,PJMISO,LOAD
